     2.11           OBSERVATION DATA    G (GPS)             RINEX VERSION / TYPE
Topcon Tools 8.2                        22-FEB-18 12:39     PGM / RUN BY / DATE
build October 04, 2011  by (c) Topcon Positioning Systems   COMMENT
2                                                           MARKER NAME
                                                            MARKER NUMBER
-Unknown-           -Unknown-                               OBSERVER / AGENCY
8RIYQ51WD8G         Topcon              -Unknown-           REC # / TYPE / VERS
-Unknown-           -Unknown-                               ANT # / TYPE
  6348893.6251   -55726.9751   606073.6634                  APPROX POSITION XYZ
        0.0000        0.0000        0.0000                  ANTENNA: DELTA H/E/N
     1     1                                                WAVELENGTH FACT L1/2
  2018     2    21    16    41   10.0000000     GPS         TIME OF FIRST OBS
  2018     2    21    16    47   18.0000000     GPS         TIME OF LAST OBS
     1.000                                                  INTERVAL
    18                                                      LEAP SECONDS
     9                                                      # OF SATELLITES
     7    C1    P1    P2    L1    L2    D1    D2            # / TYPES OF OBSERV
   G 2   369   369   369   369   369   369   369            PRN / # OF OBS
   G12   369   369   369   369   369   369   369            PRN / # OF OBS
   G15   369   369   369   369   369   369   369            PRN / # OF OBS
   G20   369   362   362   369   362   369   362            PRN / # OF OBS
   G21   369   369   369   369   369   369   369            PRN / # OF OBS
   G24   369   364   364   369   364   369   364            PRN / # OF OBS
   G25   369   363   363   369   363   369   363            PRN / # OF OBS
   G29   369   369   369   369   369   369   369            PRN / # OF OBS
   G32   369   369   369   369   369   369   369            PRN / # OF OBS
SE TPS 00000000                                             COMMENT
                                                            END OF HEADER
 18  2 21 16 41 10.0000000  0  9G 2G12G15G20G21G24G25G29G32         
  24301303.580 7  24301301.16044  24301303.82644 127704198.961 7  99509778.60144
      1067.757         832.022  
  23113168.332 7  23113167.40745  23113171.60845 121460511.399 7  94644566.67945
       583.479         454.654  
  22471655.670 8  22471656.12545  22471663.50845 118089332.618 8  92017667.88845
      -580.117        -452.037  
  23890400.691 6                                 125544907.385 6                
      1369.405                  
  23874658.937 6  23874655.29741  23874661.04541 125462166.096 6  97762731.65041
      4883.599        3805.414  
  21627462.904 8                                 113653066.950 8                
      2627.446                  
  22584532.667 7                                 118682516.582 7                
      1483.418                  
  20152458.248 8  20152456.99747  20152463.09947 105901877.559 8  82520952.93047
      2994.545        2333.412  
  23774874.891 7  23774873.72945  23774885.01145 124937809.402 7  97354141.47645
      5154.452        4016.451  
 18  2 21 16 41 11.0000000  0  9G 2G12G15G20G21G24G25G29G32         
  24301100.486 7  24301098.30644  24301100.98544 127703131.038 7  99508946.44744
      1067.964         832.187  
  23113057.413 7  23113056.68345  23113060.76445 121459927.566 7  94644111.74545
       584.111         455.151  
  22471765.707 8  22471766.66445  22471772.55845 118089912.644 8  92018119.85145
      -579.964        -451.913  
  23890140.304 6                                 125543537.732 6                
      1369.918                  
  23873729.644 6  23873726.63741  23873732.08741 125457282.339 6  97758926.13341
      4883.956        3805.663  
  21626962.690 8                                 113650439.325 8                
      2627.688                  
  22584250.495 7                                 118681032.943 7                
      1483.820                  
  20151888.410 8  20151887.52047  20151892.54347 105898883.165 8  82518619.63747
      2994.228        2333.163  
  23773894.067 7  23773893.33645  23773903.39645 124932654.926 7  97350125.00645
      5154.476        4016.470  
 18  2 21 16 41 12.0000000  0  9G 2G12G15G20G21G24G25G29G32         
  24300897.508 7  24300895.17544  24300898.00144 127702063.247 7  99508114.39944
      1067.724         831.994  
  23112946.289 7  23112945.75345  23112949.87245 121459343.375 7  94643656.52945
       584.368         455.356  
  22471876.159 7  22471877.00145  22471882.09345 118090492.626 7  92018571.78845
      -579.959        -451.923  
  23889879.347 6                                 125542167.557 6                
      1370.435                  
  23872799.572 6  23872797.67641  23872802.95741 125452398.188 6  97755120.30641
      4884.346        3805.983  
  21626462.749 8                                 113647811.753 8                
      2627.547                  
  22583968.080 7                                 118679549.080 7                
      1483.973                  
  20151318.666 8  20151318.06047  20151322.39247 105895889.197 8  82516286.67547
      2993.754        2332.796  
  23772913.577 7  23772912.78945  23772922.18145 124927500.576 7  97346108.62945
      5154.287        4016.331  
 18  2 21 16 41 13.0000000  0  9G 2G12G15G20G21G24G25G29G32         
  24300694.132 7  24300692.13744  24300695.13244 127700995.516 7  99507282.40444
      1067.701         831.970  
  23112834.973 7  23112834.61245  23112838.83045 121458758.716 7  94643200.95345
       584.894         455.756  
  22471986.415 7  22471987.24845  22471991.82745 118091072.528 7  92019023.65945
      -579.862        -451.839  
  23889618.370 6                                 125540796.799 6                
      1371.049                  
  23871870.451 6  23871868.79141  23871873.98441 125447513.704 6  97751314.22141
      4884.651        3806.213  
  21625962.837 8                                 113645184.202 8                
      2627.539                  
  22583685.544 7                                 118678064.959 7                
      1484.251                  
  20150748.937 8  20150748.56947  20150752.46747 105892895.564 8  82513953.97447
      2993.466        2332.572  
  23771933.000 7  23771932.10845  23771940.81045 124922346.310 7  97342092.32145
      5154.223        4016.273  
 18  2 21 16 41 14.0000000  0  9G 2G12G15G20G21G24G25G29G32         
  24300491.031 7  24300489.16244  24300492.01144 127699928.052 7  99506450.61544
      1067.331         831.686  
  23112723.567 7  23112723.42645  23112727.43345 121458173.736 7  94642745.11845
       585.140         455.965  
  22472096.730 7  22472097.49745  22472101.80745 118091652.295 7  92019475.43545
      -579.699        -451.728  
  23889357.544 6                                 125539425.475 6                
      1371.606                  
  23870940.698 6  23870938.98141  23870944.49441 125442628.674 6  97747507.71241
      4885.304        3806.721  
  21625462.763 8                                 113642556.779 8                
      2627.360                  
  22583403.152 7                                 118676580.562 7                
      1484.535                  
  20150179.291 8  20150179.10847  20150182.68747 105889902.260 8  82511621.53047
      2993.139        2332.315  
  23770952.166 7  23770951.39645  23770959.62845 124917192.062 7  97338076.03145
      5154.240        4016.282  
 18  2 21 16 41 15.0000000  0  9G 2G12G15G20G21G24G25G29G32         
  24300287.810 7  24300286.44544  24300289.12544 127698860.778 7  99505618.98744
      1067.178         831.547  
  23112612.273 7  23112612.05645  23112616.14645 121457588.511 7  94642289.09945
       585.347         456.111  
  22472207.140 8  22472207.76445  22472211.81545 118092231.873 8  92019927.05045
      -579.484        -451.535  
  23889096.739 6                                 125538053.415 6                
      1372.429                  
  23870011.519 6  23870009.38141  23870015.36041 125437742.979 6  97743700.67041
      4886.027        3807.309  
  21624962.733 7  21624957.65545  21624989.33445 113639929.502 7  88550599.28545
      2627.203        2047.177  
  22583120.768 8                                 118675096.003 8                
      1484.640                  
  20149609.841 8  20149609.62147  20149613.01147 105886909.254 8  82509289.32347
      2992.857        2332.088  
  23769971.070 7  23769970.70345  23769978.49545 124912037.967 7  97334059.85645
      5154.017        4016.117  
 18  2 21 16 41 16.0000000  0  9G 2G12G15G20G21G24G25G29G32         
  24300084.553 7  24300083.52044  24300085.90644 127697793.226 7  99504787.12344
      1067.691         831.982  
  23112500.890 7  23112500.54945  23112504.94445 121457002.654 7  94641832.58245
       586.173         456.766  
  22472317.520 8  22472318.03045  22472321.95245 118092811.388 8  92020378.61945
      -579.484        -451.546  
  23888835.640 6                                 125536680.944 6                
      1372.676                  
  23869082.017 6  23869080.01043  23869085.85943 125432857.177 6  97739893.56843
      4885.855        3807.132  
  21624462.847 8  21624459.31745  21624480.70245 113637301.981 8  88548551.83345
      2627.643        2047.451  
  22582838.359 8  22582834.84545  22582862.02045 118673611.205 8  92472952.53645
      1484.917        1156.367  
  20149040.216 8  20149040.20147  20149043.50447 105883916.730 8  82506957.48647
      2992.282        2331.652  
  23768990.226 7  23768990.08345  23768997.72245 124906884.092 7  97330043.84845
      5153.765        4015.924  
 18  2 21 16 41 17.0000000  0  9G 2G12G15G20G21G24G25G29G32         
  24299881.210 7  24299880.49344  24299883.14344 127696725.934 7  99503955.46344
      1067.162         831.558  
  23112389.165 7  23112389.09445  23112393.43645 121456416.451 7  94641375.80245
       586.377         456.912  
  22472427.910 7  22472428.39045  22472432.17945 118093391.006 7  92020830.26945
      -579.670        -451.691  
  23888574.392 6  23888571.94943  23888574.25043 125535308.059 6  97819722.83543
      1373.092        1071.442  
  23868151.954 6  23868150.13143  23868156.56743 125427971.077 6  97736086.21843
      4886.250        3807.474  
  21623962.729 8  21623960.62345  21623975.00445 113634674.615 8  88546504.51345
      2627.289        2047.255  
  22582555.630 8  22582553.08245  22582572.39345 118672126.152 8  92471795.34545
      1485.180        1157.191  
  20148470.889 8  20148470.81247  20148474.13247 105880924.689 8  82504626.02847
      2991.801        2331.268  
  23768009.376 7  23768009.35845  23768016.86145 124901730.328 7  97326027.92945
      5153.710        4015.875  
 18  2 21 16 41 18.0000000  0  9G 2G12G15G20G21G24G25G29G32         
  24299678.003 7  24299677.37044  24299680.08044 127695658.790 7  99503123.92144
      1067.070         831.483  
  23112277.580 7  23112277.44645  23112281.76645 121455829.653 7  94640918.55445
       587.094         457.482  
  22472538.412 8  22472538.74945  22472542.40845 118093970.931 8  92021282.15645
      -580.078        -452.004  
  23888313.520 6  23888311.26143  23888313.65643 125533935.085 6  97818652.98243
      1373.018        1069.854  
  23867221.825 6  23867220.43943  23867227.05743 125423085.015 6  97732278.89143
      4886.041        3807.315  
  21623462.822 8  21623461.36346  21623472.61146 113632047.344 8  88544457.27846
      2627.222        2047.192  
  22582272.954 8  22582271.25045  22582285.65145 118670640.686 8  92470637.82145
      1485.673        1157.691  
  20147901.655 8  20147901.48547  20147904.86347 105877933.164 8  82502294.96647
      2991.266        2330.865  
  23767028.958 7  23767028.67345  23767036.08845 124896576.450 7  97322011.92345
      5153.934        4016.049  
 18  2 21 16 41 19.0000000  0  9G 2G12G15G20G21G24G25G29G32         
  24299475.340 7  24299474.25144  24299476.97844 127694591.842 7  99502292.53644
      1066.850         831.306  
  23112166.036 7  23112165.78645  23112170.35945 121455242.660 7  94640461.16145
       587.091         457.465  
  22472648.590 8  22472648.96345  22472652.57745 118094550.394 8  92021733.68945
      -579.233        -451.357  
  23888051.785 6  23888050.06143  23888053.09043 125532561.113 6  97817582.34943
      1374.471        1071.022  
  23866291.799 6  23866290.32143  23866297.39143 125418197.978 6  97728470.82143
      4887.525        3808.442  
  21622962.803 8  21622961.74946  21622971.14846 113629420.173 8  88542410.13246
      2627.122        2047.101  
  22581990.176 7  22581988.90546  22582000.52046 118669154.978 7  92469480.12446
      1485.829        1157.782  
  20147332.408 8  20147332.27447  20147335.55247 105874941.767 8  82499964.00847
      2991.333        2330.905  
  23766048.168 7  23766048.04045  23766055.20345 124891422.610 7  97317995.94545
      5153.820        4015.963  
 18  2 21 16 41 20.0000000  0  9G 2G12G15G20G21G24G25G29G32         
  24299272.226 7  24299271.53944  24299273.65644 127693524.831 7  99501461.09644
      1067.043         831.468  
  23112054.051 7  23112054.05145  23112058.52945 121454655.141 7  94640003.35545
       587.782         458.012  
  22472758.822 8  22472759.21745  22472762.91645 118095129.894 8  92022185.24745
      -579.518        -451.570  
  23887790.870 6  23887788.73943  23887792.02443 125531186.777 6  97816511.44643
      1374.517        1071.038  
  23865361.979 6  23865360.46143  23865367.38843 125413310.807 6  97724662.64943
      4887.238        3808.222  
  21622462.918 8  21622461.92646  21622470.42346 113626792.921 8  88540362.92546
      2627.292        2047.238  
  22581707.465 7  22581706.36246  22581716.46646 118667669.046 7  92468322.25246
      1486.044        1157.961  
  20146763.314 8  20146763.07847  20146766.29347 105871950.861 8  82497633.43347
      2990.660        2330.384  
  23765067.397 7  23765067.43545  23765074.54345 124886268.990 7  97313980.13945
      5153.510        4015.720  
 18  2 21 16 41 21.0000000  0  9G 2G12G15G20G21G24G25G29G32         
  24299069.125 7  24299068.45944  24299070.49944 127692457.778 7  99500629.62944
      1067.073         831.480  
  23111942.238 7  23111942.04445  23111946.71445 121454067.111 7  94639545.14845
       588.286         458.407  
  22472869.206 7  22472869.45345  22472873.16745 118095709.367 7  92022636.78445
      -579.458        -451.528  
  23887529.336 6  23887527.38343  23887530.17343 125529811.944 6  97815440.13443
      1375.081        1071.516  
  23864432.446 6  23864430.72843  23864437.39543 125408423.360 6  97720854.24543
      4887.584        3808.522  
  21621962.835 8  21621962.09246  21621969.85346 113624165.606 8  88538315.66746
      2627.347        2047.282  
  22581424.680 8  22581423.71646  22581432.74146 118666182.813 8  92467164.14846
      1486.384        1158.219  
  20146194.247 8  20146194.04147  20146197.15347 105868960.363 8  82495303.17847
      2990.294        2330.096  
  23764086.628 7  23764086.75745  23764093.94445 124881115.402 7  97309964.35945
      5153.573        4015.767  
 18  2 21 16 41 22.0000000  0  9G 2G12G15G20G21G24G25G29G32         
  24298866.183 7  24298865.44344  24298867.54044 127691391.146 7  99499798.49144
      1066.421         830.974  
  23111830.572 7  23111830.11945  23111834.68845 121453478.782 7  94639086.70345
       588.478         458.564  
  22472979.383 7  22472979.63145  22472983.39745 118096288.771 7  92023088.26945
      -579.371        -451.459  
  23887267.258 6  23887266.15543  23887268.96243 125528436.507 6  97814368.36643
      1375.739        1071.996  
  23863502.208 6  23863500.89743  23863507.44043 125403535.288 6  97717045.35343
      4888.386        3809.135  
  21621463.024 8  21621462.33346  21621469.55546 113621538.559 8  88536268.61546
      2626.912        2046.949  
  22581141.785 8  22581140.97946  22581149.15646 118664696.254 8  92466005.78946
      1486.721        1158.486  
  20145625.081 8  20145624.99447  20145628.16747 105865970.177 8  82492973.16347
      2990.030        2329.894  
  23763105.831 7  23763106.02645  23763113.18145 124875961.809 7  97305948.57945
      5153.595        4015.780  
 18  2 21 16 41 23.0000000  0  9G 2G12G15G20G21G24G25G29G32         
  24298663.362 7  24298662.42344  24298664.49344 127690324.454 7  99498967.30744
      1066.722         831.207  
  23111718.396 7  23111718.05745  23111722.88845 121452889.966 7  94638627.88945
       589.059         458.999  
  22473089.660 8  22473089.79345  22473093.56545 118096868.094 8  92023539.68645
      -579.281        -451.384  
  23887005.521 6  23887004.44743  23887007.32243 125527060.575 6  97813296.22443
      1376.179        1072.330  
  23862571.972 6  23862570.81943  23862577.17943 125398646.955 6  97713236.27043
      4888.463        3809.179  
  21620963.171 8  21620962.49046  21620969.41146 113618911.425 8  88534221.49246
      2627.178        2047.158  
  22580858.750 8  22580858.13546  22580865.98846 118663209.457 8  92464847.24646
      1486.916        1158.635  
  20145056.196 8  20145056.04547  20145059.22647 105862980.393 8  82490643.45947
      2989.584        2329.548  
  23762125.292 7  23762125.46145  23762132.40445 124870808.326 7  97301932.87445
      5153.427        4015.666  
 18  2 21 16 41 24.0000000  0  9G 2G12G15G20G21G24G25G29G32         
  24298460.391 7  24298459.39444  24298461.52644 127689257.892 7  99498136.21944
      1066.498         831.040  
  23111606.406 7  23111605.93545  23111610.69345 121452300.734 7  94638168.74345
       589.441         459.311  
  22473199.851 7  22473199.97245  22473203.86245 118097447.404 7  92023991.10145
      -579.304        -451.414  
  23886742.917 6  23886742.81443  23886745.23743 125525684.169 6  97812223.71043
      1376.642        1072.699  
  23861641.166 6  23861640.10643  23861646.83343 125393758.243 6  97709426.89543
      4888.901        3809.521  
  21620463.203 8  21620462.59146  21620469.25846 113616284.337 8  88532174.41346
      2627.065        2047.058  
  22580575.599 8  22580575.20546  22580582.68846 118661722.387 8  92463688.49446
      1487.208        1158.857  
  20144487.349 8  20144487.22747  20144490.42647 105859991.002 8  82488314.06447
      2989.194        2329.240  
  23761144.525 7  23761144.84945  23761151.76845 124865654.927 7  97297917.24445
      5153.358        4015.594  
 18  2 21 16 41 25.0000000  0  9G 2G12G15G20G21G24G25G29G32         
  24298257.397 7  24298256.54144  24298258.50644 127688191.349 7  99497305.15344
      1066.534         831.055  
  23111494.221 7  23111493.82345  23111498.58445 121451711.032 7  94637709.23545
       589.937         459.688  
  22473309.977 8  22473310.09045  22473314.01045 118098026.611 8  92024442.42945
      -579.156        -451.285  
  23886480.606 6  23886480.98243  23886483.49743 125524307.190 6  97811150.74043
      1377.266        1073.198  
  23860711.464 6  23860709.95643  23860716.61043 125388869.133 6  97705617.20443
      4889.308        3809.848  
  21619963.238 8  21619962.69846  21619969.18946 113613657.242 8  88530127.32846
      2627.098        2047.087  
  22580292.635 8  22580292.26546  22580299.49446 118660235.052 8  92462529.53446
      1487.467        1159.064  
  20143918.552 8  20143918.44447  20143921.62047 105857001.967 8  82485984.94747
      2988.856        2328.978  
  23760163.639 7  23760164.25145  23760171.15345 124860501.584 7  97293901.65345
      5153.314        4015.571  
 18  2 21 16 41 26.0000000  0  9G 2G12G15G20G21G24G25G29G32         
  24298054.399 7  24298053.59544  24298055.63044 127687124.942 7  99496474.18644
      1066.338         830.918  
  23111382.048 7  23111381.63245  23111386.41745 121451120.926 7  94637249.41145
       590.308         459.982  
  22473420.180 8  22473420.31845  22473424.11345 118098605.752 8  92024893.70645
      -579.107        -451.251  
  23886218.093 6  23886218.61143  23886221.10543 125522929.692 6  97810077.36943
      1377.757        1073.572  
  23859780.266 6  23859779.33043  23859786.38043 125383979.617 6  97701807.20343
      4889.720        3810.156  
  21619463.337 8  21619462.80546  21619469.15746 113611030.205 8  88528080.28546
      2627.008        2047.023  
  22580009.461 8  22580009.18946  22580016.35846 118658747.442 8  92461370.35746
      1487.748        1159.285  
  20143349.808 8  20143349.71047  20143352.89947 105854013.327 8  82483656.13547
      2988.443        2328.659  
  23759183.210 7  23759183.48645  23759190.62545 124855348.345 7  97289886.14645
      5153.188        4015.465  
 18  2 21 16 41 27.0000000  0  9G 2G12G15G20G21G24G25G29G32         
  24297851.558 7  24297850.69944  24297852.59444 127686058.656 7  99495643.31244
      1066.225         830.826  
  23111269.708 7  23111269.42145  23111274.05245 121450530.469 7  94636789.31545
       590.632         460.232  
  22473530.427 7  22473530.48645  22473534.35245 118099184.904 7  92025344.99245
      -579.157        -451.290  
  23885956.025 6  23885956.25943  23885958.84743 125521551.713 6  97809003.62543
      1378.218        1073.931  
  23858849.663 6  23858849.07943  23858856.03843 125379089.772 6  97697996.94143
      4890.008        3810.392  
  21618963.441 8  21618962.90546  21618969.26346 113608403.257 8  88526033.31346
      2626.902        2046.936  
  22579726.359 8  22579726.11846  22579733.18446 118657259.622 8  92460211.01846
      1487.925        1159.421  
  20142781.195 8  20142781.03847  20142784.28347 105851025.119 8  82481327.66147
      2987.991        2328.306  
  23758202.754 7  23758202.94945  23758209.82145 124850195.216 7  97285870.72445
      5153.074        4015.379  
 18  2 21 16 41 28.0000000  0  9G 2G12G15G20G21G24G25G29G32         
  24297648.779 7  24297647.78344  24297649.76944 127684992.543 7  99494812.57044
      1066.027         830.676  
  23111157.435 7  23111157.04545  23111161.63745 121449939.611 7  94636328.90145
       591.059         460.573  
  22473640.626 8  22473640.70745  22473644.58045 118099764.060 8  92025796.28045
      -579.159        -451.288  
  23885694.012 6  23885693.82143  23885696.15843 125520173.328 6  97807929.55443
      1378.589        1074.233  
  23857919.722 6  23857918.35543  23857925.66643 125374199.652 6  97694186.45743
      4890.258        3810.595  
  21618463.534 8  21618463.06746  21618469.37246 113605776.416 8  88523986.42046
      2626.788        2046.853  
  22579443.223 8  22579443.01046  22579450.01646 118655771.573 8  92459051.49546
      1488.163        1159.614  
  20142212.678 8  20142212.44747  20142215.61947 105848037.364 8  82478999.53747
      2987.529        2327.948  
  23757221.868 7  23757222.38945  23757229.29845 124845042.252 7  97281855.43345
      5152.881        4015.226  
 18  2 21 16 41 29.0000000  0  9G 2G12G15G20G21G24G25G29G32         
  24297445.948 7  24297444.95444  24297446.83944 127683926.590 7  99493981.96844
      1065.873         830.533  
  23111044.918 7  23111044.63645  23111049.06345 121449348.409 7  94635868.22645
       591.374         460.805  
  22473750.871 8  22473750.80345  22473754.71645 118100343.260 8  92026247.60445
      -579.222        -451.342  
  23885431.725 6  23885431.59243  23885434.19343 125518794.467 6  97806855.11743
      1379.098        1074.620  
  23856988.544 6  23856987.66243  23856994.90243 125369309.209 6  97690375.73243
      4890.604        3810.845  
  21617963.630 8  21617963.26046  21617969.43846 113603149.710 8  88521939.63746
      2626.638        2046.728  
  22579160.081 8  22579159.78946  22579166.81346 118654283.328 8  92457891.82646
      1488.342        1159.742  
  20141644.321 8  20141644.01047  20141647.15647 105845050.070 8  82476671.77747
      2987.063        2327.578  
  23756241.457 7  23756241.72545  23756248.82345 124839889.409 7  97277840.22645
      5152.782        4015.165  
 18  2 21 16 41 30.0000000  0  9G 2G12G15G20G21G24G25G29G32         
  24297242.553 7  24297241.90244  24297244.14544 127682860.775 7  99493151.45844
      1065.745         830.463  
  23110931.928 7  23110932.05845  23110936.39045 121448756.789 7  94635407.22245
       591.829         461.169  
  22473861.107 7  22473860.87145  22473864.94545 118100922.397 7  92026698.87745
      -579.105        -451.248  
  23885169.409 6  23885169.17143  23885171.98443 125517415.103 6  97805780.28843
      1379.616        1075.026  
  23856058.005 6  23856057.19943  23856064.31943 125364418.390 6  97686564.70243
      4891.008        3811.183  
  21617463.834 8  21617463.40546  21617469.63446 113600523.034 8  88519892.87646
      2626.662        2046.749  
  22578876.891 8  22578876.47246  22578883.60646 118652794.835 8  92456731.96146
      1488.617        1159.963  
  20141075.951 8  20141075.65647  20141078.76247 105842063.168 8  82474344.32047
      2986.706        2327.306  
  23755260.938 7  23755261.25345  23755268.28945 124834736.660 7  97273825.10145
      5152.703        4015.085  
 18  2 21 16 41 31.0000000  0  9G 2G12G15G20G21G24G25G29G32         
  24297039.824 7  24297038.94244  24297041.15644 127681795.005 7  99492320.98744
      1065.748         830.451  
  23110819.443 7  23110819.49145  23110823.84845 121448164.759 7  94634945.90345
       592.235         461.476  
  22473971.032 7  22473971.04745  22473975.16845 118101501.410 7  92027150.05845
      -578.951        -451.135  
  23884906.844 6  23884906.66643  23884909.13543 125516035.190 6  97804705.04043
      1380.188        1075.457  
  23855126.765 6  23855126.16443  23855133.64043 125359527.176 6  97682753.37543
      4891.411        3811.475  
  21616963.944 8  21616963.59646  21616969.84046 113597896.401 8  88517846.14946
      2626.611        2046.711  
  22578593.713 8  22578593.09146  22578600.23346 118651306.067 8  92455571.88346
      1488.906        1160.184  
  20140507.686 8  20140507.34547  20140510.41647 105839076.625 8  82472017.14247
      2986.363        2327.038  
  23754280.111 7  23754280.70545  23754287.93045 124829584.012 7  97269810.04645
      5152.597        4015.019  
 18  2 21 16 41 32.0000000  0  9G 2G12G15G20G21G24G25G29G32         
  24296836.898 7  24296836.13144  24296838.19844 127680729.414 7  99491490.65644
      1065.501         830.261  
  23110706.774 7  23110706.77845  23110711.08745 121447572.358 7  94634484.29445
       592.585         461.753  
  22474081.119 8  22474081.34145  22474085.31945 118102080.432 8  92027601.24345
      -579.027        -451.187  
  23884644.227 6  23884644.20143  23884646.45743 125514654.796 6  97803629.39143
      1380.634        1075.849  
  23854196.168 6  23854195.46743  23854202.59043 125354635.609 6  97678941.76843
      4891.744        3811.746  
  21616464.182 8  21616463.78346  21616470.03146 113595269.855 8  88515799.49146
      2626.503        2046.624  
  22578310.198 7  22578309.71046  22578316.82546 118649817.083 7  92454411.63846
      1489.092        1160.328  
  20139939.446 8  20139939.13947  20139942.20447 105836090.523 8  82469690.31047
      2985.882        2326.660  
  23753299.673 7  23753300.13245  23753307.48145 124824431.491 7  97265795.10245
      5152.457        4014.889  
 18  2 21 16 41 33.0000000  0  9G 2G12G15G20G21G24G25G29G32         
  24296634.126 7  24296633.46944  24296635.74944 127679663.920 7  99490660.40244
      1065.446         830.215  
  23110594.132 7  23110593.84645  23110598.22945 121446979.543 7  94634022.35545
       593.023         462.104  
  22474191.357 8  22474191.64145  22474195.52345 118102659.410 8  92028052.39445
      -578.956        -451.134  
  23884381.659 6  23884381.62843  23884383.96543 125513273.923 6  97802553.38443
      1381.113        1076.187  
  23853265.433 6  23853264.64743  23853271.64543 125349743.647 6  97675129.86243
      4892.159        3812.056  
  21615964.396 8  21615964.00946  21615970.25646 113592643.357 8  88513752.86646
      2626.474        2046.607  
  22578026.867 8  22578026.29146  22578033.41146 118648327.843 8  92453251.19446
      1489.368        1160.543  
  20139371.270 8  20139370.96947  20139374.06147 105833104.818 8  82467363.78647
      2985.506        2326.369  
  23752319.633 7  23752319.77945  23752327.00145 124819279.052 7  97261780.21445
      5152.398        4014.859  
 18  2 21 16 41 34.0000000  0  9G 2G12G15G20G21G24G25G29G32         
  24296431.761 7  24296430.58144  24296432.95544 127678598.559 7  99489830.24844
      1065.294         830.105  
  23110481.340 7  23110480.96345  23110485.31745 121446386.358 7  94633560.13345
       593.369         462.364  
  22474301.443 8  22474301.70945  22474305.69645 118103238.397 8  92028503.55145
      -578.992        -451.159  
  23884118.430 6  23884118.61943  23884121.16543 125511892.555 6  97801477.00143
      1381.614        1076.570  
  23852334.817 6  23852333.80643  23852340.79843 125344851.393 6  97671317.72143
      4892.400        3812.258  
  21615464.673 8  21615464.24446  21615470.39446 113590016.934 8  88511706.30246
      2626.385        2046.533  
  22577743.311 8  22577742.83346  22577749.97346 118646838.374 8  92452090.56746
      1489.583        1160.718  
  20138803.137 8  20138802.88047  20138806.00747 105830119.539 8  82465037.59547
      2985.067        2326.025  
  23751339.153 7  23751339.31345  23751346.54345 124814126.743 7  97257765.43045
      5152.243        4014.731  
 18  2 21 16 41 35.0000000  0  9G 2G12G15G20G21G24G25G29G32         
  24296228.919 7  24296228.00844  24296230.22644 127677533.332 7  99489000.20544
      1065.159         829.986  
  23110368.265 7  23110368.17545  23110372.37045 121445792.784 7  94633097.61445
       593.769         462.668  
  22474411.626 8  22474411.94245  22474415.91845 118103817.346 8  92028954.68145
      -578.929        -451.117  
  23883855.412 6  23883855.79843  23883857.93143 125510510.717 6  97800400.21743
      1382.074        1076.985  
  23851403.753 6  23851402.66643  23851409.66743 125339958.804 6  97667505.31643
      4892.757        3812.537  
  21614964.888 8  21614964.47746  21614970.56746 113587390.581 8  88509659.79546
      2626.317        2046.479  
  22577459.880 8  22577459.29846  22577466.47146 118645348.657 8  92450929.75146
      1489.840        1160.911  
  20138235.105 8  20138234.82447  20138237.98247 105827134.676 8  82462711.73147
      2984.654        2325.700  
  23750358.552 7  23750358.74445  23750366.02345 124808974.523 7  97253750.71945
      5152.176        4014.676  
 18  2 21 16 41 36.0000000  0  9G 2G12G15G20G21G24G25G29G32         
  24296026.179 7  24296025.31944  24296027.42144 127676468.220 7  99488170.24144
      1065.055         829.925  
  23110255.458 7  23110255.01045  23110259.28945 121445198.785 7  94632634.75645
       594.211         463.026  
  22474521.654 8  22474522.04145  22474526.12645 118104396.255 8  92029405.77845
      -578.890        -451.081  
  23883592.298 6  23883592.70543  23883595.27743 125509128.377 6  97799323.08143
      1382.591        1077.312  
  23850472.775 6  23850471.29843  23850478.91143 125335065.866 6  97663692.64343
      4893.112        3812.806  
  21614465.195 8  21614464.67146  21614470.72346 113584764.274 8  88507613.32346
      2626.285        2046.455  
  22577176.373 7  22577175.74946  22577182.92546 118643858.660 7  92449768.71446
      1490.137        1161.147  
  20137667.183 8  20137666.88147  20137670.07347 105824150.203 8  82460386.16647
      2984.278        2325.416  
  23749378.360 7  23749378.40945  23749385.71045 124803822.392 7  97249736.07345
      5152.086        4014.613  
 18  2 21 16 41 37.0000000  0  9G 2G12G15G20G21G24G25G29G32         
  24295823.542 7  24295822.72244  24295824.76844 127675403.253 7  99487340.39644
      1064.894         829.786  
  23110142.354 7  23110141.78645  23110146.05145 121444604.382 7  94632171.58845
       594.606         463.324  
  22474631.819 7  22474632.03245  22474636.21645 118104975.119 7  92029856.83545
      -578.840        -451.036  
  23883329.533 6  23883329.37543  23883332.27543 125507745.511 6  97798245.52343
      1383.129        1077.769  
  23849541.568 6  23849540.23843  23849547.48143 125330172.463 6  97659879.60743
      4893.636        3813.217  
  21613965.472 8  21613964.92846  21613971.00646 113582138.073 8  88505566.93446
      2626.147        2046.346  
  22576892.815 8  22576892.16746  22576899.45346 118642368.467 8  92448607.52346
      1490.292        1161.269  
  20137099.351 8  20137099.00447  20137102.25547 105821166.146 8  82458060.92447
      2983.850        2325.080  
  23748397.707 7  23748397.97345  23748405.25945 124798670.383 7  97245721.52045
      5151.948        4014.506  
 18  2 21 16 41 38.0000000  0  9G 2G12G15G20G21G24G25G29G32         
  24295621.234 7  24295619.95144  24295622.07144 127674338.362 7  99486510.61244
      1064.854         829.753  
  23110029.079 7  23110028.69245  23110032.99745 121444009.703 7  94631708.20345
       594.817         463.493  
  22474742.131 8  22474742.15945  22474746.50645 118105553.894 8  92030307.82945
      -578.732        -450.963  
  23883066.255 6  23883066.05643  23883069.39943 125506362.075 6  97797167.52743
      1383.721        1078.214  
  23848610.443 6  23848608.74943  23848616.28043 125325278.761 6  97656066.34243
      4893.851        3813.380  
  21613465.809 8  21613465.27846  21613471.28746 113579511.930 8  88503520.58846
      2626.115        2046.325  
  22576609.254 8  22576608.55346  22576615.81346 118640878.128 8  92447446.22146
      1490.411        1161.357  
  20136531.651 8  20136531.28147  20136534.46947 105818182.507 8  82455736.01347
      2983.429        2324.745  
  23747417.664 7  23747417.62845  23747424.80845 124793518.612 7  97241707.15745
      5151.652        4014.268  
 18  2 21 16 41 39.0000000  0  9G 2G12G15G20G21G24G25G29G32         
  24295418.403 7  24295417.45544  24295419.36344 127673273.632 7  99485680.95544
      1064.649         829.593  
  23109915.429 7  23109915.28645  23109919.89245 121443414.522 7  94631244.42745
       595.432         463.972  
  22474852.332 7  22474852.36245  22474856.76845 118106132.721 7  92030758.86245
      -578.852        -451.052  
  23882803.357 6  23882802.43143  23882805.56643 125504978.282 6  97796089.23043
      1383.971        1078.448  
  23847678.238 6  23847677.35043  23847684.87743 125320384.750 6  97652252.82943
      4894.165        3813.636  
  21612965.997 8  21612965.65646  21612971.56346 113576885.861 8  88501474.29946
      2626.031        2046.261  
  22576325.458 7  22576324.80346  22576332.15846 118639387.467 7  92446284.66646
      1490.823        1161.682  
  20135963.865 8  20135963.54947  20135966.80047 105815199.287 8  82453411.42847
      2983.010        2324.423  
  23746437.234 7  23746437.20445  23746444.49545 124788366.825 7  97237692.77745
      5151.795        4014.388  
 18  2 21 16 41 40.0000000  0  9G 2G12G15G20G21G24G25G29G32         
  24295215.896 7  24295214.77744  24295216.68144 127672209.137 7  99484851.47444
      1064.378         829.393  
  23109802.175 7  23109801.93845  23109806.49645 121442819.036 7  94630780.41145
       595.638         464.135  
  22474962.688 8  22474962.67145  22474966.88045 118106711.629 8  92031209.95845
      -578.949        -451.128  
  23882539.865 6  23882539.04443  23882541.99543 125503594.052 6  97795010.60843
      1384.449        1078.785  
  23846746.595 6  23846746.34543  23846753.57243 125315490.513 6  97648439.14243
      4894.351        3813.775  
  21612466.193 8  21612465.96446  21612471.85946 113574259.953 8  88499428.13846
      2625.828        2046.097  
  22576041.696 7  22576041.04146  22576048.47546 118637896.605 7  92445122.95446
      1490.962        1161.790  
  20135396.339 8  20135395.95247  20135399.17547 105812216.580 8  82451087.23947
      2982.450        2323.989  
  23745456.857 7  23745456.75445  23745464.15945 124783215.232 7  97233678.54845
      5151.495        4014.152  
 18  2 21 16 41 41.0000000  0  9G 2G12G15G20G21G24G25G29G32         
  24295013.302 7  24295012.27544  24295014.37744 127671144.801 7  99484022.12344
      1064.256         829.285  
  23109688.636 7  23109688.47545  23109693.09345 121442223.172 7  94630316.09745
       596.053         464.463  
  22475072.933 8  22475072.96745  22475076.93645 118107290.491 8  92031661.02045
      -578.840        -451.046  
  23882275.871 6  23882275.24643  23882278.60143 125502209.351 6  97793931.63043
      1384.936        1079.156  
  23845815.752 6  23845815.14843  23845822.01643 125310595.858 6  97644625.12243
      4894.863        3814.186  
  21611966.451 8  21611966.26546  21611972.20146 113571634.116 8  88497382.03246
      2625.801        2046.078  
  22575757.858 8  22575757.27346  22575764.80846 118636405.538 8  92443961.08146
      1491.170        1161.954  
  20134828.857 8  20134828.45747  20134831.65847 105809234.283 8  82448763.37147
      2982.092        2323.708  
  23744476.345 7  23744476.48945  23744483.96245 124778063.741 7  97229664.40145
      5151.440        4014.107  
 18  2 21 16 41 42.0000000  0  9G 2G12G15G20G21G24G25G29G32         
  24294810.962 7  24294809.72644  24294811.84344 127670080.579 7  99483192.85844
      1064.166         829.223  
  23109575.254 7  23109574.97945  23109579.59645 121441626.929 7  94629851.49545
       596.432         464.745  
  22475183.032 8  22475183.02645  22475187.09945 118107869.386 8  92032112.10945
      -578.910        -451.102  
  23882012.152 6  23882011.72843  23882015.08143 125500824.223 6  97792852.33143
      1385.341        1079.459  
  23844885.031 6  23844883.75043  23844890.46443 125305700.916 6  97640810.88843
      4895.086        3814.342  
  21611466.724 8  21611466.57946  21611472.51246 113569008.378 8  88495336.00246
      2625.689        2045.992  
  22575474.233 8  22575473.47546  22575481.08546 118634914.234 8  92442799.02746
      1491.422        1162.144  
  20134261.344 8  20134261.01347  20134264.28647 105806252.421 8  82446439.84447
      2981.644        2323.357  
  23743496.377 7  23743496.37945  23743503.58345 124772912.384 7  97225650.36145
      5151.290        4013.987  
 18  2 21 16 41 43.0000000  0  9G 2G12G15G20G21G24G25G29G32         
  24294608.631 7  24294607.33244  24294609.42644 127669016.457 7  99482363.67844
      1064.071         829.137  
  23109461.686 7  23109461.39845  23109466.14245 121441030.266 7  94629386.56045
       596.873         465.101  
  22475292.993 7  22475293.13845  22475297.39345 118108448.133 7  92032563.08045
      -578.674        -450.912  
  23881748.828 6  23881747.96743  23881751.45143 125499438.486 6  97791772.52643
      1386.041        1080.059  
  23843953.416 6  23843952.18643  23843959.05343 125300805.548 6  97636996.31943
      4895.581        3814.735  
  21610967.132 8  21610966.89746  21610972.84846 113566382.657 8  88493289.98546
      2625.712        2046.011  
  22575190.467 8  22575189.58446  22575197.24546 118633422.685 8  92441636.77946
      1491.672        1162.344  
  20133693.921 8  20133693.63847  20133696.91547 105803270.930 8  82444116.60447
      2981.306        2323.096  
  23742516.047 7  23742516.23145  23742523.39545 124767761.141 7  97221636.40545
      5151.187        4013.913  
 18  2 21 16 41 44.0000000  0  9G 2G12G15G20G21G24G25G29G32         
  24294405.830 7  24294404.80944  24294406.89144 127667952.452 7  99481534.58444
      1063.947         829.052  
  23109348.106 7  23109347.76445  23109352.47645 121440433.213 7  94628921.32445
       597.248         465.387  
  22475403.335 7  22475403.27545  22475407.52345 118109026.883 7  92033014.05045
      -578.751        -450.970  
  23881485.813 6  23881484.23843  23881487.85843 125498052.274 6  97790692.35543
      1386.450        1080.354  
  23843021.345 6  23843020.29543  23843027.51643 125295909.843 6  97633181.49043
      4895.874        3814.960  
  21610467.453 8  21610467.27746  21610473.21846 113563757.021 8  88491244.03446
      2625.593        2045.917  
  22574906.666 8  22574905.72746  22574913.38946 118631930.888 8  92440474.34346
      1491.920        1162.531  
  20133126.510 8  20133126.34747  20133129.61547 105800289.851 8  82441793.68447
      2980.872        2322.758  
  23741536.280 7  23741535.98745  23741543.22945 124762609.988 7  97217622.52745
      5151.107        4013.839  
 18  2 21 16 41 45.0000000  0  9G 2G12G15G20G21G24G25G29G32         
  24294203.510 7  24294202.36344  24294204.49944 127666888.602 7  99480705.60844
      1063.773         828.916  
  23109234.518 7  23109234.17945  23109238.73345 121439835.794 7  94628455.80345
       597.602         465.664  
  22475513.267 7  22475513.39145  22475517.68245 118109605.613 7  92033465.00845
      -578.720        -450.953  
  23881221.920 6  23881220.65443  23881224.20743 125496665.592 6  97789611.81343
      1386.916        1080.727  
  23842089.716 6  23842088.50943  23842095.67543 125291013.804 6  97629366.41043
      4896.206        3815.206  
  21609967.877 8  21609967.67846  21609973.57746 113561131.462 8  88489198.14546
      2625.521        2045.858  
  22574622.789 7  22574621.80146  22574629.45546 118630438.867 7  92439311.72446
      1492.133        1162.709  
  20132559.265 8  20132559.12747  20132562.39347 105797309.202 8  82439471.10147
      2980.434        2322.415  
  23740555.805 7  23740555.72545  23740563.06545 124757458.981 7  97213608.75545
      5150.934        4013.719  
 18  2 21 16 41 46.0000000  0  9G 2G12G15G20G21G24G25G29G32         
  24294000.897 7  24293999.78744  24294002.03844 127665824.871 7  99479876.72544
      1063.670         828.836  
  23109120.597 7  23109120.33045  23109124.99845 121439237.959 7  94627989.96045
       598.043         466.003  
  22475623.357 8  22475623.45645  22475627.66245 118110184.329 8  92033915.95345
      -578.709        -450.938  
  23880957.675 6  23880956.83643  23880960.26743 125495278.407 6  97788530.90643
      1387.437        1081.090  
  23841158.258 6  23841156.74043  23841164.05443 125286117.398 6  97625551.02343
      4896.589        3815.540  
  21609468.332 8  21609468.12246  21609473.96546 113558505.962 8  88487152.30046
      2625.470        2045.822  
  22574338.942 7  22574337.83946  22574345.42446 118628946.590 7  92438148.91046
      1492.405        1162.912  
  20131992.265 8  20131992.00147  20131995.28747 105794328.978 8  82437148.84847
      2980.012        2322.089  
  23739575.836 7  23739575.74445  23739582.82945 124752308.054 7  97209595.05045
      5150.888        4013.673  
 18  2 21 16 41 47.0000000  0  9G 2G12G15G20G21G24G25G29G32         
  24293798.752 7  24293797.40444  24293799.59144 127664761.276 7  99479047.94844
      1063.528         828.724  
  23109006.577 7  23109006.58645  23109011.17045 121438639.741 7  94627523.81745
       598.409         466.293  
  22475733.408 8  22475733.52045  22475737.71745 118110763.029 8  92034366.88945
      -578.693        -450.931  
  23880693.447 6  23880692.95543  23880696.04843 125493890.783 6  97787449.64243
      1387.843        1081.443  
  23840226.631 6  23840224.78443  23840232.40443 125281220.714 6  97621735.42343
      4896.823        3815.706  
  21608968.930 8  21608968.54046  21608974.37146 113555880.584 8  88485106.55046
      2625.317        2045.703  
  22574055.068 8  22574053.88746  22574061.45246 118627454.123 8  92436985.94846
      1492.562        1163.036  
  20131425.186 8  20131425.00447  20131428.27347 105791349.192 8  82434826.93747
      2979.566        2321.740  
  23738595.154 7  23738595.67245  23738602.66645 124747157.294 7  97205581.47045
      5150.676        4013.516  
 18  2 21 16 41 48.0000000  0  9G 2G12G15G20G21G24G25G29G32         
  24293596.311 7  24293594.97944  24293597.27544 127663697.890 7  99478219.34144
      1063.280         828.522  
  23108892.900 7  23108892.58745  23108897.45645 121438041.200 7  94627057.41545
       598.704         466.531  
  22475843.426 7  22475843.72545  22475847.81345 118111341.735 7  92034817.82845
      -578.709        -450.942  
  23880428.998 6  23880428.60743  23880432.04943 125492502.682 6  97786367.99843
      1388.339        1081.833  
  23839295.782 6  23839292.71743  23839300.63343 125276323.689 6  97617919.55643
      4897.195        3816.000  
  21608469.285 8  21608468.98546  21608474.74346 113553255.298 8  88483060.87346
      2625.241        2045.641  
  22573770.835 8  22573769.73546  22573777.43146 118625961.443 8  92435822.82246
      1492.786        1163.208  
  20130858.260 8  20130858.11547  20130861.32947 105788369.850 8  82432505.37147
      2979.121        2321.393  
  23737614.967 7  23737615.43045  23737622.52245 124742006.639 7  97201567.97645
      5150.602        4013.451  
 18  2 21 16 41 49.0000000  0  9G 2G12G15G20G21G24G25G29G32         
  24293393.844 7  24293392.76644  24293395.19244 127662634.685 7  99477390.86444
      1063.115         828.411  
  23108778.957 7  23108778.50245  23108783.51145 121437442.300 7  94626590.74245
       599.079         466.807  
  22475953.638 7  22475953.89445  22475958.04245 118111920.493 7  92035268.80845
      -578.783        -451.000  
  23880164.351 6  23880164.49043  23880168.23643 125491114.211 6  97785286.08443
      1388.657        1082.049  
  23838363.187 6  23838360.82543  23838368.74943 125271426.407 6  97614103.48843
      4897.411        3816.169  
  21607969.806 8  21607969.45546  21607975.20346 113550630.203 8  88481015.34246
      2624.999        2045.457  
  22573486.790 7  22573485.56446  22573493.29746 118624468.574 7  92434659.54746
      1492.962        1163.348  
  20130291.310 8  20130291.25947  20130294.47747 105785390.994 8  82430184.18447
      2978.613        2320.998  
  23736634.661 7  23736635.38945  23736642.48045 124736856.225 7  97197554.66845
      5150.293        4013.216  
 18  2 21 16 41 50.0000000  0  9G 2G12G15G20G21G24G25G29G32         
  24293192.010 7  24293190.52544  24293193.00444 127661571.613 7  99476562.50144
      1063.006         828.306  
  23108665.022 7  23108664.48445  23108669.35145 121436843.031 7  94626123.77945
       599.453         467.108  
  22476063.809 8  22476064.04745  22476068.20045 118112499.210 8  92035719.75545
      -578.697        -450.931  
  23879899.951 6  23879899.88543  23879903.61443 125489725.204 6  97784203.74743
      1389.275        1082.549  
  23837430.423 6  23837428.70043  23837436.82443 125266528.695 6  97610287.09943
      4897.926        3816.549  
  21607470.162 8  21607469.90446  21607475.66246 113548005.147 8  88478969.84446
      2625.037        2045.482  
  22573202.713 7  22573201.50146  22573209.25346 118622975.492 7  92433496.10446
      1493.190        1163.527  
  20129724.582 8  20129724.46547  20129727.68847 105782412.552 8  82427863.32147
      2978.235        2320.701  
  23735654.613 7  23735655.36245  23735662.38945 124731705.879 7  97193541.41145
      5150.312        4013.231  
 18  2 21 16 41 51.0000000  0  9G 2G12G15G20G21G24G25G29G32         
  24292989.792 7  24292988.23844  24292990.85644 127660508.651 7  99475734.21244
      1062.906         828.252  
  23108551.034 7  23108550.38945  23108555.18145 121436243.360 7  94625656.50445
       599.873         467.431  
  22476174.252 8  22476174.13145  22476178.31245 118113077.911 8  92036170.69045
      -578.694        -450.929  
  23879635.439 7  23879635.65543  23879639.33143 125488335.690 7  97783120.99743
      1389.766        1082.956  
  23836498.311 6  23836496.78443  23836504.91443 125261630.701 6  97606470.48143
      4898.135        3816.732  
  21606970.714 8  21606970.38246  21606976.18446 113545380.167 8  88476924.40746
      2624.942        2045.407  
  22572918.478 7  22572917.33946  22572925.14146 118621482.164 7  92432332.47146
      1493.450        1163.728  
  20129157.854 8  20129157.77547  20129161.01147 105779434.532 8  82425542.78547
      2977.809        2320.372  
  23734674.612 7  23734675.32945  23734682.25945 124726555.649 7  97189528.24745
      5150.171        4013.118  
 18  2 21 16 41 52.0000000  0  9G 2G12G15G20G21G24G25G29G32         
  24292787.291 7  24292786.03244  24292788.68244 127659445.826 7  99474906.04444
      1062.756         828.108  
  23108436.798 7  23108436.16245  23108441.08145 121435643.273 7  94625188.90145
       600.294         467.768  
  22476284.316 7  22476284.21945  22476288.36345 118113656.564 7  92036621.58745
      -578.628        -450.879  
  23879371.024 6  23879371.27943  23879375.16543 125486945.712 6  97782037.89643
      1390.211        1083.276  
  23835566.844 6  23835564.67843  23835572.52543 125256732.354 6  97602653.59543
      4898.524        3817.020  
  21606471.093 8  21606470.85446  21606476.65646 113542755.237 8  88474879.00946
      2624.904        2045.378  
  22572634.101 8  22572633.14546  22572640.88246 118619988.565 8  92431168.62746
      1493.735        1163.950  
  20128591.234 8  20128591.16247  20128594.39047 105776456.901 8  82423222.55247
      2977.436        2320.081  
  23733694.472 7  23733695.26145  23733702.27745 124721405.520 7  97185515.16145
      5150.078        4013.046  
 18  2 21 16 41 53.0000000  0  9G 2G12G15G20G21G24G25G29G32         
  24292585.245 7  24292583.84544  24292586.59544 127658383.141 7  99474077.97844
      1062.616         828.014  
  23108322.780 7  23108321.94345  23108326.88845 121435042.825 7  94624721.02145
       600.629         468.017  
  22476394.492 8  22476394.29345  22476398.53945 118114235.167 8  92037072.44845
      -578.578        -450.842  
  23879106.187 6  23879106.91043  23879110.60543 125485555.242 6  97780954.41343
      1390.716        1083.674  
  23834634.243 5  23834632.66443  23834640.17743 125251833.653 5  97598836.43243
      4898.878        3817.302  
  21605971.706 8  21605971.41846  21605977.12046 113540130.405 8  88472833.68646
      2624.783        2045.286  
  22572349.946 8  22572348.90246  22572356.66046 118618494.776 8  92430004.63746
      1493.883        1164.062  
  20128024.749 8  20128024.60447  20128027.85047 105773479.688 8  82420902.64847
      2977.004        2319.740  
  23732714.561 7  23732715.34045  23732722.30345 124716255.532 7  97181502.18945
      5149.918        4012.915  
 18  2 21 16 41 54.0000000  0  9G 2G12G15G20G21G24G25G29G32         
  24292382.757 7  24292381.63644  24292384.32144 127657320.604 7  99473250.02844
      1062.463         827.892  
  23108208.299 7  23108207.60145  23108212.73845 121434442.044 7  94624252.87545
       600.946         468.280  
  22476504.552 7  22476504.43645  22476508.67645 118114813.808 7  92037523.33545
      -578.660        -450.901  
  23878841.285 6  23878842.02343  23878845.69443 125484164.310 6  97779870.56643
      1391.162        1084.029  
  23833702.132 5  23833700.28043  23833708.04743 125246934.601 5  97595018.99843
      4899.227        3817.569  
  21605472.368 8  21605471.91546  21605477.62946 113537505.667 8  88470788.43446
      2624.692        2045.216  
  22572065.595 8  22572064.64346  22572072.44646 118617000.772 8  92428840.47846
      1494.112        1164.244  
  20127458.362 8  20127458.15347  20127461.42047 105770502.950 8  82418583.11247
      2976.501        2319.353  
  23731734.615 7  23731735.38445  23731742.39145 124711105.711 7  97177489.34445
      5149.737        4012.782  
 18  2 21 16 41 55.0000000  0  9G 2G12G15G20G21G24G25G29G32         
  24292180.600 7  24292179.41944  24292182.13244 127656258.291 7  99472422.25444
      1062.201         827.686  
  23108094.204 7  23108093.11345  23108098.21145 121433840.940 7  94623784.48345
       601.266         468.515  
  22476614.582 7  22476614.63445  22476618.80045 118115392.522 7  92037974.28045
      -578.751        -450.973  
  23878576.918 6  23878577.48843  23878580.96743 125482773.003 6  97778786.41843
      1391.495        1084.299  
  23832770.365 6  23832767.68443  23832775.85443 125242035.340 6  97591201.39943
      4899.365        3817.681  
  21604972.957 8  21604972.52346  21604978.26746 113534881.106 8  88468743.32346
      2624.471        2045.040  
  22571781.352 8  22571780.39346  22571788.13046 118615506.640 8  92427676.22046
      1494.195        1164.307  
  20126892.124 8  20126891.80847  20126895.10947 105767526.733 8  82416263.98047
      2975.957        2318.929  
  23730754.701 7  23730755.48245  23730762.41745 124705956.083 7  97173476.64645
      5149.531        4012.624  
 18  2 21 16 41 56.0000000  0  9G 2G12G15G20G21G24G25G29G32         
  24291978.429 7  24291977.32744  24291979.95644 127655196.095 7  99471594.56544
      1062.136         827.646  
  23107979.483 7  23107978.53745  23107983.72945 121433239.401 7  94623315.75045
       601.757         468.904  
  22476724.749 7  22476724.74145  22476728.94445 118115971.153 7  92038425.16145
      -578.589        -450.850  
  23878312.196 6  23878312.29343  23878315.79243 125481381.110 6  97777701.83243
      1392.185        1084.805  
  23831837.333 6  23831835.24643  23831843.36843 125237135.695 6  97587383.49743
      4899.838        3818.053  
  21604473.650 8  21604473.07646  21604478.85146 113532256.587 8  88466698.24546
      2624.498        2045.061  
  22571496.936 8  22571496.05846  22571503.72346 118614012.208 8  92426511.72846
      1494.582        1164.608  
  20126325.791 8  20126325.53647  20126328.79347 105764550.861 8  82413945.12147
      2975.699        2318.723  
  23729775.062 7  23729775.42745  23729782.52145 124700806.515 7  97169464.00545
      5149.538        4012.613  
 18  2 21 16 41 57.0000000  0  9G 2G12G15G20G21G24G25G29G32         
  24291776.420 7  24291775.13244  24291777.81044 127654134.012 7  99470766.97544
      1062.027         827.542  
  23107864.846 7  23107864.04045  23107869.09045 121432637.484 7  94622846.72845
       602.106         469.166  
  22476834.801 7  22476834.83345  22476839.04345 118116549.774 7  92038876.03645
      -578.617        -450.871  
  23878047.685 6  23878047.51643  23878051.01343 125479988.804 6  97776616.93443
      1392.512        1085.054  
  23830905.599 6  23830902.93243  23830910.95543 125232235.720 6  97583565.33843
      4900.139        3818.289  
  21603974.271 8  21603973.66146  21603979.40046 113529632.124 8  88464653.21046
      2624.435        2045.014  
  22571212.418 8  22571211.72546  22571219.32946 118612517.559 8  92425347.06746
      1494.757        1164.746  
  20125759.539 8  20125759.40747  20125762.63647 105761575.434 8  82411626.60847
      2975.205        2318.340  
  23728794.852 7  23728795.53345  23728802.70345 124695657.070 7  97165451.45145
      5149.384        4012.511  
 18  2 21 16 41 58.0000000  0  9G 2G12G15G20G21G24G25G29G32         
  24291574.499 7  24291573.01344  24291575.91944 127653072.139 7  99469939.54444
      1061.767         827.350  
  23107750.016 7  23107749.48445  23107754.51445 121432035.247 7  94622377.45545
       602.397         469.399  
  22476944.837 7  22476944.86245  22476949.09045 118117128.442 7  92039326.94445
      -578.691        -450.926  
  23877782.488 6  23877782.60443  23877786.66843 125478596.084 6  97775531.70543
      1392.927        1085.394  
  23829972.970 5  23829970.53443  23829978.38643 125227335.468 5  97579746.97843
      4900.391        3818.459  
  21603474.774 8  21603474.32146  21603480.04546 113527007.821 8  88462608.29946
      2624.223        2044.849  
  22570927.954 7  22570927.33346  22570934.84946 118611022.750 7  92424182.28446
      1494.890        1164.844  
  20125193.436 8  20125193.30447  20125196.55947 105758600.494 8  82409308.47347
      2974.697        2317.945  
  23727815.308 7  23727815.74345  23727822.84545 124690507.874 7  97161439.09245
      5149.071        4012.261  
 18  2 21 16 41 59.0000000  0  9G 2G12G15G20G21G24G25G29G32         
  24291372.709 7  24291371.12744  24291373.92744 127652010.465 7  99469112.26944
      1061.575         827.197  
  23107635.190 7  23107634.96845  23107639.75345 121431432.709 7  94621907.94045
       602.688         469.636  
  22477055.012 7  22477055.10345  22477059.18546 118117707.101 7  92039777.84346
      -578.654        -450.894  
  23877517.547 6  23877517.41643  23877521.68843 125477202.873 6  97774446.07943
      1393.456        1085.826  
  23829039.856 5  23829038.24243  23829045.60143 125222434.870 5  97575928.32743
      4900.771        3818.797  
  21602975.417 8  21602975.01646  21602980.63446 113524383.664 8  88460563.50046
      2624.084        2044.743  
  22570643.470 8  22570642.97546  22570650.37046 118609527.775 8  92423017.36846
      1495.058        1164.983  
  20124627.472 8  20124627.28547  20124630.49847 105755626.018 8  82406990.70047
      2974.243        2317.593  
  23726835.275 7  23726835.91745  23726843.09545 124685358.815 7  97157426.83845
      5148.991        4012.202  
 18  2 21 16 42  0.0000000  0  9G 2G12G15G20G21G24G25G29G32         
  24291170.553 7  24291169.15044  24291172.11044 127650948.904 7  99468285.08044
      1061.504         827.146  
  23107520.612 7  23107520.06745  23107524.89245 121430829.679 7  94621438.04545
       603.276         470.084  
  22477165.142 8  22477165.19645  22477169.44846 118118285.764 8  92040228.74846
      -578.665        -450.908  
  23877252.305 6  23877251.53443  23877255.91043 125475809.210 6  97773360.10643
      1393.889        1086.145  
  23828106.937 5  23828105.23043  23828113.17743 125217533.959 5  97572109.44343
      4901.067        3819.000  
  21602476.017 8  21602475.69246  21602481.22446 113521759.561 8  88458518.74746
      2624.077        2044.730  
  22570359.013 8  22570358.49846  22570365.88746 118608032.479 8  92421852.20446
      1495.456        1165.288  
  20124061.496 8  20124061.29347  20124064.59447 105752651.934 8  82404673.23147
      2973.888        2317.316  
  23725855.367 7  23725856.08445  23725863.29645 124680209.802 7  97153414.62345
      5148.988        4012.194  
 18  2 21 16 42  1.0000000  0  9G 2G12G15G20G21G24G25G29G32         
  24290968.582 7  24290966.99144  24290970.27744 127649887.479 7  99467458.00244
      1061.358         827.023  
  23107405.759 7  23107405.23145  23107409.97945 121430226.342 7  94620967.91545
       603.491         470.248  
  22477275.471 8  22477275.28046  22477279.63445 118118864.387 8  92040679.62345
      -578.604        -450.859  
  23876987.320 6  23876986.29043  23876990.47043 125474415.104 6  97772273.78543
      1394.328        1086.495  
  23827174.048 5  23827172.49443  23827180.65043 125212632.773 5  97568290.33643
      4901.323        3819.219  
  21601976.559 8  21601976.33446  21601981.95146 113519135.557 8  88456474.06746
      2623.954        2044.643  
  22570074.431 8  22570073.94446  22570081.28346 118606537.002 8  92420686.89746
      1495.568        1165.377  
  20123495.627 8  20123495.45547  20123498.72647 105749678.312 8  82402356.12447
      2973.391        2316.927  
  23724875.429 7  23724876.29145  23724883.54945 124675060.980 7  97149402.55645
      5148.727        4011.993  
 18  2 21 16 42  2.0000000  0  9G 2G12G15G20G21G24G25G29G32         
  24290766.556 7  24290765.03844  24290768.19044 127648826.293 7  99466631.10144
      1061.066         826.812  
  23107290.980 7  23107290.34745  23107295.12945 121429622.698 7  94620497.54445
       603.797         470.491  
  22477385.502 8  22477385.41546  22477389.77545 118119443.051 8  92041130.52645
      -578.683        -450.917  
  23876721.778 6  23876720.71343  23876724.72343 125473020.543 6  97771187.12443
      1394.788        1086.831  
  23826240.759 5  23826239.97243  23826247.77043 125207731.259 5  97564470.98243
      4901.679        3819.476  
  21601477.212 8  21601477.10346  21601482.65946 113516511.737 8  88454429.53046
      2623.727        2044.465  
  22569789.841 8  22569789.35446  22569796.72646 118605041.381 8  92419521.47946
      1495.693        1165.475  
  20122929.949 8  20122929.68647  20122932.89847 105746705.166 8  82400039.38847
      2972.908        2316.549  
  23723895.879 7  23723896.45345  23723903.75845 124669912.334 7  97145390.62445
      5148.558        4011.864  
 18  2 21 16 42  3.0000000  0  9G 2G12G15G20G21G24G25G29G32         
  24290564.748 7  24290563.05144  24290566.32344 127647765.271 7  99465804.32744
      1060.941         826.710  
  23107176.103 7  23107175.52045  23107180.23845 121429018.678 7  94620026.87745
       604.207         470.814  
  22477495.748 7  22477495.56045  22477499.95745 118120021.760 7  92041581.46945
      -578.732        -450.963  
  23876456.047 6  23876455.47643  23876459.03543 125471625.562 6  97770100.12043
      1395.190        1087.176  
  23825307.898 5  23825307.31443  23825314.96643 125202829.435 5  97560651.38343
      4901.978        3819.723  
  21600977.820 8  21600977.78746  21600983.47346 113513888.035 8  88452385.08646
      2623.644        2044.397  
  22569505.028 8  22569504.75746  22569511.99946 118603545.564 8  92418355.91046
      1495.915        1165.644  
  20122364.248 8  20122364.04147  20122367.25647 105743732.508 8  82397723.03247
      2972.414        2316.167  
  23722915.853 7  23722916.74945  23722924.01545 124664763.861 7  97141378.83245
      5148.386        4011.723  
 18  2 21 16 42  4.0000000  0  9G 2G12G15G20G21G24G25G29G32         
  24290362.810 7  24290361.23044  24290364.51344 127646704.410 7  99464977.68244
      1060.779         826.582  
  23107061.145 7  23107060.48545  23107065.25745 121428414.297 7  94619555.92845
       604.563         471.090  
  22477605.992 8  22477605.77845  22477610.00145 118120600.458 8  92042032.39545
      -578.691        -450.919  
  23876190.178 6  23876189.78843  23876193.66943 125470230.106 6  97769012.76743
      1395.693        1087.527  
  23824375.323 5  23824374.39143  23824382.26243 125197927.297 5  97556831.53243
      4902.296        3819.976  
  21600478.726 8  21600478.53746  21600484.21746 113511264.445 8  88450340.72746
      2623.533        2044.317  
  22569220.149 7  22569220.14346  22569227.36146 118602049.507 7  92417190.15046
      1496.177        1165.854  
  20121798.780 8  20121798.45447  20121801.69147 105740760.293 8  82395407.01947
      2971.992        2315.840  
  23721936.223 7  23721937.06645  23721944.33645 124659615.534 7  97137367.14945
      5148.254        4011.628  
 18  2 21 16 42  5.0000000  0  9G 2G12G15G20G21G24G25G29G32         
  24290160.708 7  24290159.33644  24290162.72744 127645643.699 7  99464151.15744
      1060.636         826.465  
  23106946.118 7  23106945.22245  23106950.22545 121427809.571 7  94619084.71745
       604.898         471.341  
  22477716.016 8  22477715.92545  22477720.12345 118121179.170 8  92042483.34145
      -578.720        -450.955  
  23875924.282 6  23875923.77843  23875927.75643 125468834.237 6  97767925.07543
      1396.076        1087.861  
  23823442.259 5  23823441.26143  23823449.19843 125193024.814 5  97553011.41543
      4902.655        3820.250  
  21599979.404 8  21599979.31646  21599984.95346 113508640.958 8  88448296.45146
      2623.435        2044.233  
  22568935.530 7  22568935.39846  22568942.60146 118600553.266 7  92416024.24546
      1496.333        1165.978  
  20121233.154 8  20121233.03447  20121236.22347 105737788.496 8  82393091.33447
      2971.589        2315.521  
  23720956.721 7  23720957.28545  23720964.62245 124654467.331 7  97133355.56345
      5148.140        4011.538  
 18  2 21 16 42  6.0000000  0  9G 2G12G15G20G21G24G25G29G32         
  24289958.959 7  24289957.63844  24289960.84344 127644583.167 7  99463324.77044
      1060.443         826.318  
  23106831.127 7  23106830.15745  23106834.98145 121427204.465 7  94618613.20745
       605.296         471.660  
  22477826.186 8  22477826.09045  22477830.34545 118121757.866 8  92042934.27545
      -578.688        -450.928  
  23875658.355 6  23875658.09043  23875661.93543 125467437.863 6  97766836.98643
      1396.626        1088.288  
  23822509.910 5  23822508.35143  23822516.30943 125188122.069 5  97549191.11143
      4902.875        3820.396  
  21599480.207 8  21599480.10946  21599485.73146 113506017.552 8  88446252.23946
      2623.366        2044.181  
  22568650.812 8  22568650.65446  22568657.79146 118599056.800 8  92414858.17146
      1496.578        1166.159  
  20120667.647 8  20120667.63447  20120670.76347 105734817.149 8  82390775.99947
      2971.122        2315.160  
  23719977.268 7  23719977.56945  23719984.88845 124649319.257 7  97129344.08145
      5148.010        4011.430  
 18  2 21 16 42  7.0000000  0  9G 2G12G15G20G21G24G25G29G32         
  24289757.318 7  24289755.80244  24289759.28744 127643522.808 7  99462498.52144
      1060.273         826.180  
  23106715.780 7  23106715.04345  23106719.79045 121426599.065 7  94618141.46545
       605.547         471.858  
  22477936.333 8  22477936.22745  22477940.39745 118122336.612 8  92043385.24445
      -578.771        -450.986  
  23875393.056 6  23875392.46543  23875396.22243 125466041.066 6  97765748.56943
      1397.008        1088.582  
  23821577.973 5  23821575.59043  23821583.37843 125183219.087 5  97545370.60243
      4903.101        3820.612  
  21598981.098 8  21598980.88446  21598986.58246 113503394.305 8  88444208.15146
      2623.166        2044.026  
  22568365.981 8  22568365.83046  22568373.12046 118597560.200 8  92413691.99246
      1496.667        1166.231  
  20120102.302 8  20120102.30647  20120105.44947 105731846.313 8  82388461.06147
      2970.581        2314.740  
  23718997.557 7  23718998.01945  23719005.42645 124644171.419 7  97125332.78445
      5147.721        4011.204  
 18  2 21 16 42  8.0000000  0  9G 2G12G15G20G21G24G25G29G32         
  24289555.566 7  24289554.18144  24289557.38844 127642462.609 7  99461672.38844
      1060.119         826.075  
  23106600.516 7  23106599.96245  23106604.58345 121425993.261 7  94617669.41545
       606.006         472.204  
  22478046.630 8  22478046.52345  22478050.55145 118122915.327 8  92043836.18745
      -578.699        -450.931  
  23875127.059 6  23875126.15343  23875130.48043 125464643.808 6  97764659.80343
      1397.489        1088.940  
  23820644.222 5  23820642.48543  23820650.05543 125178315.692 5  97541549.78343
      4903.603        3820.974  
  21598482.021 8  21598481.65746  21598487.40746 113500771.153 8  88442164.13646
      2623.106        2043.978  
  22568081.311 8  22568081.02746  22568088.27946 118596063.351 8  92412525.61646
      1496.973        1166.475  
  20119537.156 8  20119537.07047  20119540.19447 105728875.906 8  82386146.45947
      2970.191        2314.435  
  23718017.988 7  23718018.40545  23718025.79645 124639023.686 7  97121321.56245
      5147.680        4011.185  
 18  2 21 16 42  9.0000000  0  9G 2G12G15G20G21G24G25G29G32         
  24289353.633 7  24289352.56944  24289355.89644 127641402.597 7  99460846.40644
      1059.917         825.906  
  23106485.017 7  23106484.53545  23106489.21645 121425387.122 7  94617197.10245
       606.306         472.445  
  22478156.844 8  22478156.65845  22478160.65645 118123494.082 8  92044287.16545
      -578.775        -450.995  
  23874861.854 6  23874860.05043  23874864.54343 125463246.102 6  97763570.67843
      1397.929        1089.304  
  23819711.178 5  23819708.95943  23819717.01743 125173412.003 5  97537728.73643
      4903.835        3821.161  
  21597982.931 8  21597982.51746  21597988.23846 113498148.081 8  88440120.18846
      2623.031        2043.915  
  22567796.215 8  22567796.17046  22567803.29846 118594566.309 8  92411359.08946
      1497.138        1166.602  
  20118971.905 8  20118971.96647  20118974.95347 105725905.955 8  82383832.21147
      2969.724        2314.071  
  23717038.357 7  23717038.83245  23717046.21345 124633876.122 7  97117310.47345
      5147.479        4011.021  
 18  2 21 16 42 10.0000000  0  9G 2G12G15G20G21G24G25G29G32         
  24289152.051 7  24289150.87144  24289154.00444 127640342.717 7  99460020.52344
      1059.814         825.833  
  23106369.890 7  23106369.11745  23106373.86045 121424780.605 7  94616724.48745
       606.706         472.765  
  22478267.028 8  22478266.81745  22478270.75145 118124072.804 8  92044738.11645
      -578.707        -450.938  
  23874595.745 6  23874594.22843  23874598.33343 125461847.939 6  97762481.21043
      1398.392        1089.640  
  23818777.400 5  23818775.52843  23818783.75843 125168508.004 5  97533907.44743
      4904.153        3821.409  
  21597483.810 8  21597483.33046  21597489.13146 113495525.103 8  88438076.30946
      2622.932        2043.844  
  22567511.324 8  22567511.18246  22567518.42946 118593069.053 8  92410192.39346
      1497.364        1166.780  
  20118406.804 8  20118406.89247  20118409.90847 105722936.437 8  82381518.30047
      2969.300        2313.741  
  23716058.902 7  23716059.35345  23716066.64245 124628728.683 7  97113299.48745
      5147.376        4010.936  
 18  2 21 16 42 11.0000000  0  9G 2G12G15G20G21G24G25G29G32         
  24288950.031 7  24288949.21644  24288952.44644 127639283.048 7  99459194.80244
      1059.563         825.641  
  23106254.436 7  23106253.53645  23106258.47845 121424173.809 7  94616251.65845
       606.936         472.936  
  22478377.028 8  22478376.93346  22478380.78346 118124651.576 8  92045189.10646
      -578.796        -451.009  
  23874329.752 6  23874327.92943  23874332.47643 125460449.294 6  97761391.35243
      1398.886        1090.054  
  23817843.433 5  23817842.13243  23817850.31343 125163603.739 5  97530085.94743
      4904.399        3821.606  
  21596984.463 8  21596984.19346  21596989.97246 113492902.288 8  88436032.56146
      2622.732        2043.683  
  22567226.382 8  22567226.15746  22567233.42546 118591571.635 8  92409025.57446
      1497.498        1166.880  
  20117841.874 8  20117841.87547  20117844.96547 105719967.421 8  82379204.78047
      2968.765        2313.326  
  23715079.760 7  23715079.82745  23715087.19545 124623581.452 7  97109288.65445
      5147.127        4010.756  
 18  2 21 16 42 12.0000000  0  9G 2G12G15G20G21G24G25G29G32         
  24288748.245 7  24288747.63144  24288750.82644 127638223.614 7  99458369.27444
      1059.317         825.431  
  23106138.779 7  23106138.03645  23106142.85645 121423566.627 7  94615778.53345
       607.374         473.272  
  22478487.130 8  22478487.15146  22478491.03446 118125230.442 8  92045640.16846
      -578.913        -451.099  
  23874063.449 6  23874061.66243  23874066.01343 125459050.360 6  97760301.28643
      1399.078        1090.169  
  23816911.293 5  23816908.69943  23816917.62443 125158699.240 5  97526264.26743
      4904.615        3821.769  
  21596485.380 8  21596485.16446  21596490.78746 113490279.630 8  88433988.92946
      2622.580        2043.573  
  22566941.491 8  22566941.16646  22566948.44846 118590074.032 8  92407858.61246
      1497.695        1167.033  
  20117276.979 8  20117276.99447  20117280.11047 105716998.917 8  82376891.65847
      2968.249        2312.921  
  23714100.448 7  23714100.47645  23714107.70945 124618434.357 7  97105277.93545
      5147.027        4010.662  
 18  2 21 16 42 13.0000000  0  9G 2G12G15G20G21G24G25G29G32         
  24288547.071 7  24288546.01644  24288549.34944 127637164.366 7  99457543.88644
      1059.154         825.317  
  23106023.246 7  23106022.54645  23106027.41145 121422959.214 7  94615305.22845
       607.528         473.395  
  22478597.187 8  22478597.24546  22478601.07546 118125809.306 8  92046091.23046
      -578.863        -451.061  
  23873797.227 6  23873795.01443  23873799.88943 125457650.923 6  97759210.79443
      1399.689        1090.706  
  23815976.842 5  23815975.21343  23815983.80543 125153794.441 5  97522442.34643
      4904.950        3822.042  
  21595986.311 8  21595986.09646  21595991.72746 113487657.118 8  88431945.41446
      2622.439        2043.457  
  22566656.512 8  22566656.16446  22566663.40746 118588576.314 8  92406691.55946
      1497.774        1167.098  
  20116712.116 8  20116712.19647  20116715.34947 105714030.894 8  82374578.91147
      2967.782        2312.560  
  23713121.176 7  23713120.98145  23713128.45045 124613287.529 7  97101267.42445
      5146.695        4010.407  
 18  2 21 16 42 14.0000000  0  9G 2G12G15G20G21G24G25G29G32         
  24288345.446 7  24288344.41644  24288347.84144 127636105.385 7  99456718.71644
      1058.849         825.061  
  23105907.649 7  23105907.07345  23105911.59145 121422351.498 7  94614831.67945
       607.869         473.670  
  22478707.095 8  22478707.49846  22478711.17246 118126388.258 8  92046542.36346
      -578.995        -451.169  
  23873530.400 6  23873527.95743  23873533.63243 125456251.141 6  97758120.06143
      1399.954        1090.853  
  23815043.976 5  23815042.28742  23815049.80343 125148889.441 5  97518620.28643
      4905.099        3822.129  
  21595487.334 8  21595487.13046  21595492.80546 113485034.837 8  88429902.08246
      2622.165        2043.239  
  22566371.491 7  22566371.00946  22566378.39546 118587078.448 7  92405524.39046
      1497.940        1167.227  
  20116147.491 8  20116147.47247  20116150.62747 105711063.371 8  82372266.55647
      2967.272        2312.159  
  23712141.969 7  23712141.55045  23712149.02745 124608140.904 7  97097257.07245
      5146.524        4010.272  
 18  2 21 16 42 15.0000000  0  9G 2G12G15G20G21G24G25G29G32         
  24288144.047 7  24288143.00544  24288146.32344 127635046.501 7  99455893.61444
      1058.834         825.068  
  23105791.739 7  23105791.39545  23105795.93745 121421743.358 7  94614357.80345
       608.351         474.040  
  22478817.250 8  22478817.76246  22478821.33046 118126967.149 8  92046993.44746
      -578.862        -451.058  
  23873263.940 6  23873261.53643  23873266.80043 125454850.840 6  97757028.90643
      1400.562        1091.366  
  23814110.419 5  23814108.41742  23814116.73843 125143983.934 5  97514797.82143
      4905.760        3822.669  
  21594988.389 8  21594988.12446  21594993.85846 113482412.597 8  88427858.77746
      2622.220        2043.292  
  22566086.462 8  22566085.86246  22566093.23446 118585580.315 8  92404357.01446
      1498.266        1167.481  
  20115582.902 8  20115582.85147  20115586.01247 105708096.274 8  82369954.53347
      2966.884        2311.857  
  23711162.292 7  23711162.23045  23711169.67445 124602994.345 7  97093246.76445
      5146.525        4010.286  
 18  2 21 16 42 16.0000000  0  9G 2G12G15G20G21G24G25G29G32         
  24287942.480 7  24287941.39944  24287944.76744 127633987.734 7  99455068.59544
      1058.710         824.978  
  23105676.030 7  23105675.62645  23105680.26445 121421134.849 7  94613883.64745
       608.692         474.296  
  22478927.598 8  22478927.96446  22478931.52746 118127546.030 8  92047444.52046
      -578.875        -451.068  
  23872997.441 6  23872995.06943  23873000.51443 125453450.109 6  97755937.41943
      1400.945        1091.653  
  23813176.882 5  23813174.46842  23813182.83743 125139078.262 5  97510975.22443
      4905.754        3822.662  
  21594489.382 8  21594489.11946  21594494.87646 113479790.404 8  88425815.50946
      2622.169        2043.250  
  22565801.243 8  22565800.72046  22565808.10246 118584081.962 8  92403189.46546
      1498.464        1167.635  
  20115018.303 8  20115018.29347  20115021.44247 105705129.605 8  82367642.84347
      2966.455        2311.524  
  23710182.826 7  23710182.99245  23710190.40245 124597847.960 7  97089236.59545
      5146.298        4010.100  
 18  2 21 16 42 17.0000000  0  9G 2G12G15G20G21G24G25G29G32         
  24287741.016 7  24287740.12744  24287743.04844 127632929.203 7  99454243.76744
      1058.412         824.732  
  23105560.060 7  23105559.65045  23105564.33245 121420526.033 7  94613409.24245
       608.971         474.528  
  22479037.835 8  22479038.14946  22479041.57846 118128124.959 8  92047895.63646
      -578.953        -451.137  
  23872731.238 6  23872728.63843  23872733.70343 125452048.931 6  97754845.59143
      1401.401        1091.998  
  23812243.218 5  23812240.93742  23812249.05543 125134172.236 5  97507152.35443
      4906.203        3823.007  
  21593990.454 8  21593990.25346  21593995.95046 113477168.405 8  88423772.39246
      2621.901        2043.041  
  22565515.931 8  22565515.44346  22565522.90646 118582583.469 8  92402021.81146
      1498.563        1167.706  
  20114453.937 8  20114453.88947  20114456.99047 105702163.442 8  82365331.54847
      2965.910        2311.096  
  23709203.351 7  23709203.74845  23709211.06945 124592701.792 7  97085226.59545
      5146.060        4009.916  
 18  2 21 16 42 18.0000000  0  9G 2G12G15G20G21G24G25G29G32         
  24287539.683 7  24287538.94244  24287541.77044 127631870.877 7  99453419.09244
      1058.223         824.598  
  23105444.184 7  23105443.81845  23105448.38545 121419916.889 7  94612934.58745
       609.307         474.780  
  22479148.106 8  22479148.34146  22479151.78746 118128703.956 8  92048346.79746
      -579.032        -451.184  
  23872464.042 6  23872462.26543  23872466.87043 125450647.308 6  97753753.41943
      1401.845        1092.344  
  23811309.103 5  23811307.06142  23811315.66643 125129265.990 5  97503329.31843
      4906.356        3823.120  
  21593491.691 8  21593491.34746  21593497.08446 113474546.552 8  88421729.38846
      2621.781        2042.948  
  22565230.867 8  22565230.22946  22565237.69046 118581084.772 8  92400853.99646
      1498.797        1167.896  
  20113889.565 8  20113889.49447  20113892.64747 105699197.743 8  82363020.61247
      2965.467        2310.757  
  23708223.879 7  23708224.65445  23708231.82345 124587555.734 7  97081216.68445
      5146.002        4009.865  
 18  2 21 16 42 19.0000000  0  9G 2G12G15G20G21G24G25G29G32         
  24287338.306 7  24287337.55144  24287340.41344 127630812.651 7  99452594.50444
      1058.176         824.545  
  23105327.905 7  23105327.89145  23105332.28745 121419307.335 7  94612459.60445
       609.760         475.147  
  22479258.245 8  22479258.60646  22479262.00746 118129282.933 8  92048797.94646
      -578.966        -451.142  
  23872197.064 6  23872195.42043  23872200.22243 125449245.334 6  97752660.95543
      1402.150        1092.610  
  23810375.528 5  23810373.43842  23810381.90543 125124359.451 5  97499506.05543
      4906.685        3823.376  
  21592992.797 8  21592992.42246  21592998.16246 113471924.759 8  88419686.43246
      2621.762        2042.931  
  22564945.703 8  22564944.89346  22564952.46246 118579585.892 8  92399686.03546
      1498.973        1168.032  
  20113325.377 8  20113325.24647  20113328.40247 105696232.517 8  82360710.04747
      2964.989        2310.380  
  23707244.728 7  23707245.43945  23707252.67645 124582409.874 7  97077206.92745
      5145.761        4009.681  
 18  2 21 16 42 20.0000000  0  9G 2G12G15G20G21G24G25G29G32         
  24287137.235 7  24287136.40144  24287139.03044 127629754.740 7  99451770.16144
      1057.754         824.220  
  23105211.933 7  23105211.81845  23105216.27445 121418697.566 7  94611984.45945
       609.876         475.227  
  22479368.328 8  22479368.85546  22479372.28546 118129861.878 8  92049249.07046
      -578.930        -451.112  
  23871930.030 6  23871928.80943  23871933.50243 125447842.749 6  97751568.03143
      1402.889        1093.154  
  23809441.461 5  23809439.64842  23809447.72642 125119452.471 5  97495682.44142
      4907.201        3823.789  
  21592493.817 8  21592493.54746  21592499.39146 113469303.176 8  88417643.64146
      2621.478        2042.708  
  22564660.223 8  22564659.59946  22564667.30446 118578086.834 8  92398517.93946
      1499.146        1168.165  
  20112761.297 8  20112761.09547  20112764.20747 105693267.724 8  82358399.81847
      2964.577        2310.060  
  23706265.300 7  23706266.26845  23706273.40545 124577264.194 7  97073197.31345
      5145.590        4009.542  
 18  2 21 16 42 21.0000000  0  9G 2G12G15G20G21G24G25G29G32         
  24286935.774 7  24286935.03144  24286937.82944 127628696.872 7  99450945.84844
      1057.846         824.298  
  23105095.950 7  23105095.64945  23105100.32545 121418087.291 7  94611508.92645
       610.528         475.727  
  22479478.497 8  22479479.13646  22479482.41546 118130440.846 8  92049700.21746
      -578.978        -451.158  
  23871663.609 6  23871661.64143  23871666.62843 125446439.802 6  97750474.82643
      1403.129        1093.346  
  23808507.488 5  23808506.07442  23808514.06642 125114545.281 5  97491858.66742
      4907.294        3823.854  
  21591994.805 8  21591994.70746  21592000.47346 113466681.619 8  88415600.86946
      2621.544        2042.763  
  22564374.710 7  22564374.26546  22564381.94446 118576587.473 7  92397349.60546
      1499.512        1168.452  
  20112197.118 8  20112196.99847  20112200.09847 105690303.350 8  82356089.91647
      2964.163        2309.738  
  23705286.439 7  23705287.02945  23705294.30845 124572118.588 7  97069187.75245
      5145.569        4009.534  
 18  2 21 16 42 22.0000000  0  9G 2G12G15G20G21G24G25G29G32         
  24286734.487 7  24286733.75944  24286736.55344 127627639.247 7  99450121.72144
      1057.504         824.033  
  23104979.537 7  23104979.42745  23104984.11545 121417476.778 7  94611033.20145
       610.631         475.819  
  22479588.612 8  22479589.27446  22479592.55746 118131019.883 8  92050151.41246
      -579.073        -451.219  
  23871396.626 6  23871394.40243  23871399.75543 125445036.416 6  97749381.28443
      1403.605        1093.710  
  23807572.895 5  23807572.22142  23807580.15842 125109637.821 5  97488034.67542
      4907.596        3824.101  
  21591496.015 8  21591495.90346  21591501.68646 113464060.219 8  88413558.21846
      2621.321        2042.591  
  22564089.400 8  22564088.91946  22564096.57046 118575088.048 8  92396181.22146
      1499.457        1168.409  
  20111633.140 8  20111633.01347  20111636.06747 105687339.545 8  82353780.45447
      2963.520        2309.242  
  23704307.248 7  23704307.86345  23704315.22745 124566973.220 7  97065178.37545
      5145.249        4009.284  
 18  2 21 16 42 23.0000000  0  9G 2G12G15G20G21G24G25G29G32         
  24286533.467 7  24286532.44144  24286535.43444 127626581.790 7  99449297.74044
      1057.373         823.909  
  23104863.278 7  23104863.33845  23104867.69745 121416865.929 7  94610557.21545
       611.017         476.117  
  22479698.829 8  22479699.61946  22479702.64046 118131598.941 8  92050602.62546
      -579.068        -451.223  
  23871129.146 6  23871127.10443  23871132.49843 125443632.599 6  97748287.42343
      1404.032        1094.020  
  23806639.563 6  23806638.10542  23806646.97542 125104730.036 6  97484210.44942
      4907.947        3824.343  
  21590997.178 8  21590997.16246  21591002.90746 113461438.957 8  88411515.67646
      2621.193        2042.487  
  22563804.057 7  22563803.48046  22563811.20146 118573588.476 7  92395012.72246
      1499.645        1168.555  
  20111069.112 8  20111069.11447  20111072.15647 105684376.194 8  82351471.35147
      2963.124        2308.923  
  23703328.319 7  23703328.83945  23703336.19145 124561828.115 7  97061169.20645
      5144.974        4009.066  
 18  2 21 16 42 24.0000000  0  9G 2G12G15G20G21G24G25G29G32         
  24286332.212 7  24286331.34944  24286334.28444 127625524.612 7  99448473.96144
      1057.037         823.677  
  23104747.098 7  23104747.04145  23104751.26845 121416254.789 7  94610081.00445
       611.285         476.324  
  22479808.883 8  22479809.84446  22479812.89746 118132178.069 8  92051053.89346
      -579.163        -451.295  
  23870862.193 6  23870859.88343  23870865.18343 125442228.422 6  97747193.25543
      1404.357        1094.320  
  23805705.321 6  23805704.59642  23805712.29542 125099822.077 6  97480386.06642
      4908.045        3824.461  
  21590498.385 8  21590498.41646  21590504.22946 113458817.904 8  88409473.29546
      2620.948        2042.301  
  22563518.744 7  22563518.07146  22563525.82246 118572088.695 7  92393844.06246
      1499.885        1168.742  
  20110505.276 8  20110505.29147  20110508.35647 105681413.338 8  82349162.63347
      2962.608        2308.525  
  23702349.434 7  23702349.75845  23702357.17245 124556683.128 7  97057160.13045
      5144.927        4009.030  
 18  2 21 16 42 25.0000000  0  9G 2G12G15G20G21G24G25G29G32         
  24286130.915 7  24286130.33644  24286132.95744 127624467.504 7  99447650.23844
      1057.073         823.696  
  23104630.520 7  23104630.55245  23104634.75045 121415643.201 7  94609604.44245
       611.813         476.738  
  22479919.061 8  22479920.03146  22479923.11146 118132757.143 8  92051505.12046
      -579.048        -451.208  
  23870594.837 6  23870592.79243  23870598.04343 125440823.725 6  97746098.69043
      1404.957        1094.764  
  23804772.056 6  23804770.91842  23804778.89042 125094913.697 6  97476561.36042
      4908.592        3824.868  
  21589999.718 8  21589999.65246  21590005.51446 113456196.894 8  88407430.94946
      2620.989        2042.328  
  22563233.363 8  22563232.60946  22563240.35246 118570588.645 8  92392675.19046
      1500.185        1168.977  
  20109941.530 8  20109941.50547  20109944.60047 105678450.888 8  82346854.23147
      2962.248        2308.244  
  23701370.068 7  23701370.71545  23701378.01845 124551538.231 7  97053151.12245
      5144.852        4008.973  
 18  2 21 16 42 26.0000000  0  9G 2G12G15G20G21G24G25G29G32         
  24285929.869 7  24285929.21644  24285931.94144 127623410.638 7  99446826.71344
      1056.745         823.426  
  23104514.326 7  23104514.25645  23104518.41445 121415031.338 7  94609127.66645
       611.999         476.883  
  22480029.364 8  22480030.20246  22480033.34546 118133336.286 8  92051956.40446
      -579.177        -451.311  
  23870327.489 6  23870325.54743  23870330.97943 125439418.653 6  97745003.83043
      1405.259        1095.008  
  23803837.313 6  23803836.73242  23803844.69342 125090005.091 6  97472736.48342
      4908.718        3824.962  
  21589501.056 8  21589500.90646  21589506.77646 113453576.038 8  88405388.72346
      2620.779        2042.165  
  22562947.927 7  22562947.12346  22562954.92246 118569088.474 7  92391506.22646
      1500.231        1169.011  
  20109377.936 8  20109377.81447  20109380.94947 105675488.949 8  82344546.22647
      2961.683        2307.806  
  23700391.085 7  23700391.61045  23700398.82945 124546393.550 7  97049142.28245
      5144.573        4008.758  
 18  2 21 16 42 27.0000000  0  9G 2G12G15G20G21G24G25G29G32         
  24285728.553 7  24285728.17344  24285730.83844 127622353.999 7  99446003.35444
      1056.527         823.276  
  23104397.677 7  23104397.71945  23104401.78645 121414419.192 7  94608650.66845
       612.289         477.108  
  22480139.562 8  22480140.38646  22480143.56546 118133915.474 8  92052407.71746
      -579.211        -451.328  
  23870059.616 6  23870058.30443  23870063.78743 125438013.097 6  97743908.59343
      1405.799        1095.425  
  23802902.690 6  23802902.74042  23802909.92242 125085096.202 6  97468911.38442
      4909.030        3825.211  
  21589002.153 8  21589002.23346  21589008.10246 113450955.375 8  88403346.64846
      2620.567        2042.000  
  22562662.537 7  22562661.70246  22562669.42346 118567588.174 7  92390337.16146
      1500.365        1169.115  
  20108814.381 8  20108814.28747  20108817.46147 105672527.526 8  82342238.62447
      2961.166        2307.401  
  23699412.062 7  23699412.67245  23699419.86345 124541249.141 7  97045133.65745
      5144.274        4008.517  
 18  2 21 16 42 28.0000000  0  9G 2G12G15G20G21G24G25G29G32         
  24285527.147 7  24285527.14344  24285529.64544 127621297.492 7  99445180.10044
      1056.440         823.201  
  23104281.137 7  23104281.18945  23104285.17345 121413806.742 7  94608173.43845
       612.602         477.348  
  22480249.478 8  22480250.60146  22480253.77746 118134494.588 8  92052858.97546
      -579.076        -451.230  
  23869792.515 6  23869790.38643  23869796.68643 125436607.063 6  97742812.98543
      1406.272        1095.794  
  23801967.925 6  23801968.56142  23801975.70442 125080186.975 6  97465086.01242
      4909.395        3825.508  
  21588503.583 8  21588503.58046  21588509.40846 113448334.815 8  88401304.65546
      2620.507        2041.952  
  22562377.002 7  22562376.08846  22562383.80146 118566087.729 7  92389167.98146
      1500.517        1169.237  
  20108250.916 8  20108250.81947  20108253.95747 105669566.544 8  82339931.36747
      2960.761        2307.084  
  23698433.144 7  23698433.68745  23698441.02845 124536104.918 7  97041125.17345
      5144.130        4008.413  
 18  2 21 16 42 29.0000000  0  9G 2G12G15G20G21G24G25G29G32         
  24285326.551 7  24285326.18044  24285328.60944 127620241.236 7  99444357.04144
      1056.131         822.963  
  23104164.682 7  23104164.47245  23104168.61645 121413194.161 7  94607696.10145
       612.647         477.389  
  22480359.619 8  22480360.56446  22480364.01046 118135073.667 8  92053310.20746
      -579.061        -451.220  
  23869525.260 6  23869523.07843  23869528.82443 125435200.508 6  97741716.97143
      1406.816        1096.216  
  23801033.993 6  23801034.31242  23801041.41442 125075277.416 6  97461260.38042
      4909.725        3825.761  
  21588004.954 8  21588004.90646  21588010.82146 113445714.451 8  88399262.81846
      2620.268        2041.759  
  22562091.501 7  22562090.47846  22562098.33446 118564587.315 7  92387998.82746
      1500.399        1169.142  
  20107687.545 8  20107687.40447  20107690.57647 105666606.099 8  82337624.53047
      2960.177        2306.627  
  23697454.405 7  23697454.75845  23697462.18745 124530961.113 7  97037117.02245
      5143.595        4007.984  
 18  2 21 16 42 30.0000000  0  9G 2G12G15G20G21G24G25G29G32         
  24285125.880 7  24285125.38644  24285127.53344 127619185.209 7  99443534.15344
      1055.913         822.802  
  23104048.108 7  23104047.74445  23104051.99545 121412581.062 7  94607218.35745
       613.357         477.948  
  22480470.069 8  22480470.56046  22480474.04146 118135652.995 8  92053761.62846
      -579.453        -451.515  
  23869257.080 6  23869255.97443  23869260.72143 125433793.768 6  97740620.80643
      1406.832        1096.241  
  23800099.862 6  23800099.77542  23800106.80642 125070367.743 6  97457434.62742
      4909.730        3825.814  
  21587506.269 8  21587506.26346  21587512.30146 113443094.266 8  88397221.11546
      2620.094        2041.636  
  22561805.789 7  22561804.85246  22561812.72746 118563086.503 7  92386829.36646
      1501.011        1169.614  
  20107124.167 8  20107124.02247  20107127.31347 105663646.156 8  82335318.08447
      2959.691        2306.251  
  23696475.695 7  23696475.72145  23696483.17445 124525817.230 7  97033108.80245
      5143.922        4008.255  
 18  2 21 16 42 31.0000000  0  9G 2G12G15G20G21G24G25G29G32         
  24284924.929 7  24284924.59244  24284926.72444 127618129.399 7  99442711.44044
      1055.701         822.625  
  23103931.226 7  23103930.87945  23103935.34445 121411967.597 7  94606740.33145
       613.647         478.168  
  22480580.292 8  22480580.68846  22480584.20946 118136232.310 8  92054213.03946
      -579.309        -451.407  
  23868989.434 6  23868988.06343  23868992.44243 125432386.530 6  97739524.26143
      1407.487        1096.734  
  23799165.901 6  23799165.81442  23799172.60542 125065457.639 6  97453608.55442
      4910.320        3826.232  
  21587007.562 8  21587007.68346  21587013.65346 113440474.202 8  88395179.50746
      2620.003        2041.561  
  22561520.303 7  22561519.24146  22561527.11946 118561585.436 7  92385659.70146
      1501.194        1169.767  
  20106561.062 8  20106560.81347  20106564.12847 105660686.611 8  82333011.94347
      2959.346        2305.988  
  23695496.834 7  23695496.81145  23695504.13745 124520673.424 7  97029100.64045
      5143.767        4008.133  
 18  2 21 16 42 32.0000000  0  9G 2G12G15G20G21G24G25G29G32         
  24284724.005 7  24284723.65444  24284725.61544 127617073.835 7  99441888.90644
      1055.442         822.444  
  23103814.208 7  23103814.20545  23103818.75845 121411354.019 7  94606262.21245
       613.635         478.165  
  22480690.595 8  22480690.81846  22480694.44946 118136811.513 8  92054664.36346
      -579.147        -451.280  
  23868721.645 6  23868720.08743  23868724.27443 125430978.714 6  97738427.25943
      1408.105        1097.232  
  23798231.870 6  23798231.50242  23798238.40042 125060547.172 6  97449782.22642
      4910.649        3826.456  
  21586508.865 8  21586509.10946  21586515.07646 113437854.368 8  88393138.07746
      2619.719        2041.341  
  22561234.548 7  22561233.63146  22561241.44646 118560084.389 7  92384490.04946
      1501.038        1169.644  
  20105997.967 8  20105997.71647  20106000.98947 105657727.557 8  82330706.18647
      2958.809        2305.565  
  23694518.270 7  23694518.06545  23694525.33245 124515530.028 7  97025092.80345
      5143.192        4007.674  
 18  2 21 16 42 33.0000000  0  9G 2G12G15G20G21G24G25G29G32         
  24284523.220 7  24284522.72044  24284524.65744 127616018.399 7  99441066.48644
      1055.371         822.362  
  23103697.008 7  23103697.17445  23103702.07745 121410739.809 7  94605783.60345
       614.525         478.853  
  22480800.965 8  22480801.07046  22480804.61246 118137391.003 8  92055115.90746
      -579.633        -451.654  
  23868453.816 6  23868452.21843  23868456.48643 125429570.713 6  97737330.10443
      1408.094        1097.231  
  23797297.192 6  23797297.13942  23797303.21542 125055636.695 6  97445955.88342
      4910.482        3826.350  
  21586010.225 8  21586010.52446  21586016.58546 113435234.540 8  88391096.65446
      2619.825        2041.419  
  22560948.878 7  22560947.89046  22560955.65446 118558582.890 7  92383320.05046
      1501.724        1170.173  
  20105434.993 8  20105434.68147  20105437.94647 105654768.991 8  82328400.80947
      2958.322        2305.187  
  23693539.348 7  23693539.44045  23693546.49545 124510386.510 7  97021084.87145
      5143.578        4007.980  
 18  2 21 16 42 34.0000000  0  9G 2G12G15G20G21G24G25G29G32         
  24284322.752 7  24284321.92344  24284323.93944 127614963.035 7  99440244.13544
      1055.329         822.317  
  23103580.359 7  23103580.14645  23103584.96145 121410125.145 7  94605304.64245
       614.891         479.137  
  22480911.304 8  22480911.33546  22480914.97446 118137970.547 8  92055567.49846
      -579.572        -451.616  
  23868185.486 6  23868184.27243  23868188.51643 125428162.436 6  97736232.75443
      1408.414        1097.446  
  23796362.835 6  23796362.59542  23796368.95742 125050725.993 6  97442129.38342
      4910.814        3826.578  
  21585511.863 8  21585511.93346  21585518.05646 113432614.782 8  88389055.28646
      2619.724        2041.340  
  22560663.223 7  22560662.05446  22560669.95546 118557081.080 7  92382149.81246
      1501.966        1170.357  
  20104872.086 8  20104871.79047  20104875.05247 105651810.912 8  82326095.81447
      2957.835        2304.804  
  23692560.531 7  23692560.59345  23692567.84245 124505243.079 7  97017077.01045
      5143.386        4007.825  
 18  2 21 16 42 35.0000000  0  9G 2G12G15G20G21G24G25G29G32         
  24284121.689 7  24284121.27944  24284122.92444 127613907.959 7  99439422.00344
      1054.931         822.022  
  23103463.582 7  23103463.13245  23103468.08545 121409510.482 7  94604825.68445
       614.662         478.957  
  22481021.597 8  22481021.55346  22481025.32646 118138549.835 8  92056018.89046
      -579.160        -451.292  
  23867917.184 6  23867915.97543  23867920.38543 125426753.312 6  97735134.72143
      1409.547        1098.376  
  23795428.725 6  23795427.94142  23795434.22942 125045814.671 6  97438302.38042
      4911.632        3827.254  
  21585013.258 8  21585013.39046  21585019.56846 113429995.286 8  88387014.11746
      2619.365        2041.070  
  22560377.646 7  22560376.26646  22560384.14646 118555579.475 7  92380979.72646
      1501.503        1170.010  
  20104309.183 8  20104309.01347  20104312.23947 105648853.280 8  82323791.16347
      2957.410        2304.478  
  23691581.920 7  23691581.88945  23691589.11945 124500100.212 7  97013069.58045
      5142.586        4007.214  
 18  2 21 16 42 36.0000000  0  9G 2G12G15G20G21G24G25G29G32         
  24283920.909 7  24283920.45144  24283922.40144 127612852.956 7  99438599.92344
      1054.968         822.055  
  23103346.698 7  23103346.19445  23103350.96145 121408895.335 7  94604346.35245
       615.390         479.519  
  22481131.779 8  22481131.91046  22481135.61946 118139129.371 8  92056470.48246
      -579.660        -451.691  
  23867649.472 6  23867648.06443  23867651.97043 125425344.074 6  97734036.62443
      1409.296        1098.127  
  23794494.193 6  23794493.30842  23794499.75542 125040903.458 6  97434475.45942
      4911.159        3826.880  
  21584514.811 8  21584514.92646  21584521.05946 113427375.840 8  88384972.99046
      2619.420        2041.105  
  22560091.926 7  22560090.52746  22560098.48046 118554077.640 7  92379809.46446
      1501.950        1170.351  
  20103746.519 8  20103746.28647  20103749.56047 105645896.291 8  82321487.01747
      2956.666        2303.895  
  23690602.950 7  23690603.19745  23690610.37945 124494957.519 7  97009062.28645
      5142.606        4007.227  
 18  2 21 16 42 37.0000000  0  9G 2G12G15G20G21G24G25G29G32         
  24283720.293 7  24283719.77544  24283721.80644 127611798.316 7  99437778.12344
      1054.458         821.659  
  23103229.226 7  23103228.92045  23103233.82245 121408279.858 7  94603866.76745
       615.641         479.712  
  22481242.105 8  22481242.22746  22481245.93746 118139709.057 8  92056922.18546
      -579.760        -451.760  
  23867381.203 6  23867379.69043  23867383.50943 125423934.491 6  97732938.24343
      1409.755        1098.524  
  23793559.317 6  23793558.98142  23793565.26742 125035991.977 6  97430648.33442
      4911.614        3827.227  
  21584016.442 8  21584016.59146  21584022.65846 113424756.628 8  88382932.04546
      2619.094        2040.855  
  22559805.883 7  22559804.85146  22559812.66346 118552575.526 7  92378638.98946
      1502.253        1170.581  
  20103183.839 8  20103183.66947  20103186.94447 105642939.767 8  82319183.23447
      2956.291        2303.602  
  23689624.147 7  23689624.52145  23689631.85945 124489814.862 7  97005055.02345
      5142.639        4007.246  
 18  2 21 16 42 38.0000000  0  9G 2G12G15G20G21G24G25G29G32         
  24283519.358 7  24283519.03544  24283521.12744 127610743.834 7  99436956.45044
      1054.404         821.610  
  23103112.537 7  23103111.65145  23103116.35545 121407663.983 7  94603386.86545
       616.074         480.059  
  22481352.532 8  22481352.54546  22481356.20446 118140288.797 8  92057373.93446
      -579.768        -451.771  
  23867112.462 6  23867111.35443  23867114.97043 125422524.588 6  97731839.62443
      1410.063        1098.738  
  23792625.174 6  23792624.99742  23792630.91642 125031080.183 6  97426820.97142
      4911.951        3827.482  
  21583518.096 8  21583518.22746  21583524.28246 113422137.526 8  88380891.18646
      2619.048        2040.815  
  22559519.794 7  22559519.12346  22559526.87746 118551073.121 7  92377468.28646
      1502.550        1170.817  
  20102621.264 8  20102621.14247  20102624.42847 105639983.689 8  82316879.79847
      2955.855        2303.262  
  23688645.416 7  23688645.83645  23688653.30345 124484672.265 7  97001047.80545
      5142.566        4007.197  
 18  2 21 16 42 39.0000000  0  9G 2G12G15G20G21G24G25G29G32         
  24283318.948 7  24283318.44944  24283320.40644 127609689.550 7  99436134.94144
      1054.184         821.426  
  23102995.245 7  23102994.66345  23102998.83345 121407047.899 7  94602906.79745
       616.189         480.152  
  22481462.928 8  22481462.82446  22481466.53446 118140868.490 8  92057825.64146
      -579.670        -451.687  
  23866843.697 6  23866843.01043  23866846.40343 125421114.097 6  97730740.54943
      1410.784        1099.303  
  23791690.237 6  23791690.74942  23791696.62542 125026167.995 6  97422993.31542
      4912.385        3827.803  
  21583019.800 8  21583019.85546  21583025.95346 113419518.584 8  88378850.45346
      2618.862        2040.671  
  22559233.920 7  22559233.29046  22559240.91946 118549570.622 7  92376297.51246
      1502.547        1170.809  
  20102058.890 8  20102058.68847  20102062.05547 105637028.051 8  82314576.69947
      2955.419        2302.929  
  23687667.168 7  23687667.23845  23687674.86645 124479529.923 7  96997040.78545
      5142.215        4006.920  
 18  2 21 16 42 40.0000000  0  9G 2G12G15G20G21G24G25G29G32         
  24283118.282 7  24283117.79344  24283119.95344 127608635.586 7  99435313.68144
      1053.804         821.136  
  23102877.782 7  23102877.28145  23102881.40945 121406431.508 7  94602426.49545
       616.544         480.418  
  22481573.084 8  22481573.26646  22481576.94446 118141448.192 8  92058277.35746
      -579.705        -451.720  
  23866575.551 6  23866574.53943  23866578.16843 125419703.131 6  97729641.09443
      1411.203        1099.645  
  23790755.298 6  23790755.48142  23790760.72042 125021255.496 6  97419165.41242
      4912.654        3828.026  
  21582521.394 8  21582521.54346  21582527.64246 113416899.873 8  88376809.89946
      2618.595        2040.464  
  22558948.048 7  22558947.42046  22558954.91246 118548067.960 7  92375126.60746
      1502.743        1170.970  
  20101496.640 8  20101496.39647  20101499.72347 105634072.901 8  82312273.98347
      2954.906        2302.525  
  23686688.256 7  23686688.82645  23686696.36845 124474387.759 7  96993033.90845
      5142.075        4006.806  
 18  2 21 16 42 41.0000000  0  9G 2G12G15G20G21G24G25G29G32         
  24282917.612 7  24282917.21444  24282919.30644 127607581.691 7  99434492.46444
      1053.860         821.194  
  23102760.589 7  23102759.93145  23102764.16145 121405814.825 7  94601945.95745
       616.830         480.655  
  22481683.274 8  22481683.51946  22481687.30046 118142027.845 8  92058729.03446
      -579.629        -451.658  
  23866306.880 6  23866305.70643  23866309.78443 125418291.687 6  97728541.26143
      1411.684        1100.022  
  23789819.985 6  23789820.74542  23789826.26242 125016342.721 6  97415337.26342
      4912.912        3828.272  
  21582022.916 8  21582023.24546  21582029.32646 113414281.219 8  88374769.38746
      2618.626        2040.490  
  22558661.973 8  22558661.42446  22558668.95846 118546565.201 8  92373955.62346
      1502.808        1171.024  
  20100934.466 8  20100934.16947  20100937.49247 105631118.232 8  82309971.64247
      2954.428        2302.153  
  23685710.072 7  23685710.40845  23685717.92945 124469245.892 7  96989027.25945
      5141.718        4006.535  
 18  2 21 16 42 42.0000000  0  9G 2G12G15G20G21G24G25G29G32         
  24282717.202 7  24282716.62244  24282718.81544 127606528.042 7  99433671.43644
      1053.526         820.934  
  23102643.056 7  23102642.59545  23102646.70245 121405198.059 7  94601465.36745
       616.806         480.616  
  22481793.744 8  22481793.79546  22481797.63546 118142607.387 8  92059180.62546
      -579.486        -451.547  
  23866038.633 6  23866037.04343  23866040.93443 125416879.660 6  97727440.98443
      1412.317        1100.498  
  23788884.987 6  23788885.54942  23788891.95042 125011429.543 6  97411508.84342
      4913.381        3828.555  
  21581524.679 8  21581524.95646  21581531.05746 113411662.761 8  88372729.03346
      2618.359        2040.276  
  22558376.140 8  22558375.60246  22558383.08846 118545062.569 8  92372784.74346
      1502.568        1170.827  
  20100372.247 8  20100372.00347  20100375.31347 105628164.099 8  82307669.72447
      2953.866        2301.708  
  23684731.661 7  23684731.97245  23684739.47345 124464104.514 7  96985020.99445
      5141.134        4006.073  
 18  2 21 16 42 43.0000000  0  9G 2G12G15G20G21G24G25G29G32         
  24282516.512 7  24282516.21744  24282518.59044 127605474.645 7  99432850.59444
      1053.270         820.748  
  23102525.635 7  23102525.24045  23102529.20645 121404580.899 7  94600984.46545
       617.357         481.058  
  22481904.005 8  22481904.09246  22481907.86146 118143187.154 8  92059632.39146
      -579.880        -451.854  
  23865769.798 6  23865768.65943  23865772.40743 125415467.379 6  97726340.50643
      1412.408        1100.579  
  23787950.388 6  23787950.17442  23787956.22942 125006516.311 6  97407680.32642
      4913.257        3828.565  
  21581026.525 8  21581026.75446  21581032.78646 113409044.542 8  88370688.85846
      2618.099        2040.084  
  22558090.077 7  22558089.48446  22558097.20746 118543559.710 7  92371613.68046
      1502.973        1171.155  
  20099810.189 8  20099809.92047  20099813.28547 105625210.533 8  82305368.24647
      2953.283        2301.257  
  23683753.182 7  23683753.70445  23683761.18145 124458963.305 7  96981014.86145
      5141.126        4006.067  
 18  2 21 16 42 44.0000000  0  9G 2G12G15G20G21G24G25G29G32         
  24282316.184 7  24282315.72244  24282318.20344 127604421.530 7  99432029.98244
      1052.975         820.497  
  23102408.204 7  23102407.80845  23102411.78945 121403963.405 7  94600503.30245
       617.662         481.294  
  22482014.055 8  22482014.44846  22482018.13946 118143767.071 8  92060084.27146
      -579.992        -451.937  
  23865501.053 6  23865499.95743  23865503.40843 125414054.844 6  97725239.81843
      1412.663        1100.793  
  23787015.757 6  23787015.38842  23787021.02242 125001602.812 6  97403851.60642
      4913.633        3828.822  
  21580528.347 8  21580528.54646  21580534.61746 113406426.490 8  88368648.81746
      2617.969        2039.974  
  22557803.994 7  22557803.42246  22557811.17846 118542056.598 7  92370442.42446
      1503.239        1171.352  
  20099248.206 8  20099247.93747  20099251.35347 105622257.476 8  82303067.16747
      2952.802        2300.879  
  23682774.765 7  23682775.50945  23682782.90745 124453822.146 7  96977008.77245
      5141.132        4006.067  
 18  2 21 16 42 45.0000000  0  9G 2G12G15G20G21G24G25G29G32         
  24282115.853 7  24282115.18144  24282117.92344 127603368.594 7  99431209.51044
      1052.845         820.402  
  23102290.558 7  23102290.35845  23102294.31445 121403345.545 7  94600021.85445
       618.042         481.590  
  22482124.464 8  22482124.72146  22482128.43446 118144347.068 8  92060536.21546
      -580.036        -451.975  
  23865232.478 6  23865231.51043  23865234.14343 125412641.914 6  97724138.84143
      1413.128        1101.120  
  23786080.693 6  23786080.41242  23786085.80042 124996689.094 6  97400022.74942
      4913.828        3828.926  
  21580030.298 8  21580030.38246  21580036.44546 113403808.601 8  88366608.90346
      2617.808        2039.852  
  22557517.841 7  22557517.27646  22557525.13746 118540553.268 7  92369270.99646
      1503.438        1171.514  
  20098686.289 8  20098686.04747  20098689.47047 105619304.900 8  82300766.45747
      2952.336        2300.524  
  23681796.737 7  23681797.19245  23681804.39545 124448681.121 7  96973002.78245
      5140.959        4005.940  
 18  2 21 16 42 46.0000000  0  9G 2G12G15G20G21G24G25G29G32         
  24281915.416 7  24281914.88944  24281917.60144 127602315.876 7  99430389.21344
      1052.609         820.210  
  23102172.950 7  23102172.79145  23102176.61345 121402727.362 7  94599540.15445
       618.344         481.825  
  22482234.859 8  22482235.04446  22482238.86546 118144927.074 8  92060988.16946
      -580.012        -451.960  
  23864963.670 6  23864962.00143  23864965.10643 125411228.508 6  97723037.49243
      1413.643        1101.536  
  23785145.592 6  23785145.50342  23785151.15142 124991775.069 6  97396193.65342
      4914.179        3829.215  
  21579532.222 8  21579532.26346  21579538.26546 113401190.856 8  88364569.10146
      2617.673        2039.744  
  22557231.703 8  22557231.16746  22557238.97046 118539049.795 8  92368099.45846
      1503.546        1171.594  
  20098124.578 8  20098124.27747  20098127.66947 105616352.820 8  82298466.13547
      2951.831        2300.129  
  23680818.752 7  23680818.91445  23680825.95145 124443540.329 7  96968996.97145
      5140.675        4005.721  
 18  2 21 16 42 47.0000000  0  9G 2G12G15G20G21G24G25G29G32         
  24281715.301 7  24281714.71144  24281717.31144 127601263.306 7  99429569.03344
      1052.496         820.121  
  23102055.114 7  23102055.25845  23102058.76245 121402108.831 7  94599058.18145
       618.706         482.110  
  22482345.343 8  22482345.37646  22482349.18746 118145507.070 8  92061440.11246
      -579.990        -451.937  
  23864694.150 6  23864693.25943  23864696.04643 125409814.724 6  97721935.84843
      1413.974        1101.792  
  23784210.297 6  23784210.21842  23784215.70442 124986860.786 6  97392364.32942
      4914.412        3829.437  
  21579034.079 8  21579034.21346  21579040.10046 113398573.180 8  88362529.35746
      2617.641        2039.716  
  22556945.465 7  22556944.98246  22556952.70446 118537546.093 7  92366927.74346
      1503.816        1171.803  
  20097562.853 8  20097562.58647  20097565.99047 105613401.173 8  82296166.15247
      2951.430        2299.813  
  23679840.611 7  23679840.64445  23679847.78245 124438399.696 7  96964991.29145
      5140.552        4005.614  
 18  2 21 16 42 48.0000000  0  9G 2G12G15G20G21G24G25G29G32         
  24281514.855 7  24281514.41644  24281517.04444 127600211.015 7  99428749.06744
      1052.152         819.859  
  23101937.391 7  23101937.69045  23101941.22645 121401489.990 7  94598575.96245
       618.996         482.341  
  22482455.814 7  22482455.76146  22482459.72146 118146087.138 7  92061892.10946
      -580.105        -452.025  
  23864425.084 6  23864423.99843  23864427.32843 125408400.527 6  97720833.87043
      1414.403        1102.144  
  23783276.183 6  23783275.11842  23783279.51642 124981946.256 6  97388534.80642
      4914.652        3829.624  
  21578536.010 8  21578536.13046  21578542.00846 113395955.687 8  88360489.75446
      2617.402        2039.531  
  22556659.359 7  22556658.79646  22556666.51846 118536042.267 7  92365755.92946
      1503.887        1171.864  
  20097001.211 8  20097000.98847  20097004.41147 105610450.066 8  82293866.58747
      2950.837        2299.355  
  23678862.402 7  23678862.57045  23678869.51645 124433259.262 7  96960985.75545
      5140.335        4005.465  
 18  2 21 16 42 49.0000000  0  9G 2G12G15G20G21G24G25G29G32         
  24281314.459 7  24281314.11744  24281316.92444 127599158.957 7  99427929.28044
      1051.941         819.698  
  23101819.337 7  23101819.97045  23101823.29745 121400870.896 7  94598093.55945
       619.220         482.495  
  22482566.302 7  22482566.18946  22482570.03546 118146667.317 7  92062344.19646
      -580.234        -452.132  
  23864155.128 6  23864154.95743  23864158.17543 125406985.939 6  97719731.59543
      1414.783        1102.423  
  23782340.235 6  23782340.10542  23782344.62442 124977031.497 6  97384705.13442
      4914.875        3829.745  
  21578037.970 8  21578038.08246  21578043.89746 113393338.394 8  88358450.30646
      2617.193        2039.371  
  22556373.376 7  22556372.58946  22556380.27346 118534538.309 7  92364584.01546
      1504.025        1171.963  
  20096439.676 8  20096439.51647  20096442.91347 105607499.482 8  82291567.43047
      2950.322        2298.953  
  23677884.325 7  23677884.42345  23677891.43345 124428119.069 7  96956980.40945
      5140.073        4005.250  
 18  2 21 16 42 50.0000000  0  9G 2G12G15G20G21G24G25G29G32         
  24281114.284 7  24281113.88044  24281116.72844 127598107.145 7  99427109.69544
      1051.689         819.483  
  23101701.406 7  23101702.11045  23101705.29645 121400251.506 7  94597610.91745
       619.538         482.761  
  22482676.702 8  22482676.57946  22482680.44946 118147247.553 8  92062796.32546
      -580.264        -452.150  
  23863886.356 6  23863885.68043  23863888.64043 125405570.951 6  97718629.01343
      1415.188        1102.735  
  23781406.137 6  23781404.59142  23781409.09442 124972116.443 6  97380875.22942
      4915.201        3830.022  
  21577540.068 8  21577540.06246  21577545.87146 113390721.263 8  88356410.98046
      2617.048        2039.265  
  22556087.047 7  22556086.37446  22556094.03446 118533034.214 7  92363411.99446
      1504.163        1172.075  
  20095878.370 8  20095878.11547  20095881.52547 105604549.420 8  82289268.68047
      2949.801        2298.546  
  23676905.946 7  23676906.24545  23676913.35045 124422979.094 7  96952975.23545
      5139.865        4005.089  
 18  2 21 16 42 51.0000000  0  9G 2G12G15G20G21G24G25G29G32         
  24280914.194 7  24280913.87944  24280916.47544 127597055.522 7  99426290.25144
      1051.530         819.374  
  23101583.613 7  23101584.04145  23101587.27945 121399631.752 7  94597127.99245
       619.935         483.067  
  22482787.286 8  22482787.02346  22482790.87946 118147827.817 8  92063248.47846
      -580.279        -452.165  
  23863617.193 6  23863616.39643  23863619.13543 125404155.562 6  97717526.10343
      1415.589        1103.075  
  23780470.479 6  23780469.01042  23780473.91142 124967201.191 6  97377045.16442
      4915.351        3830.145  
  21577042.059 8  21577042.03446  21577047.88446 113388104.267 8  88354371.76246
      2616.929        2039.164  
  22555800.748 7  22555800.05146  22555807.77646 118531529.940 7  92362239.83846
      1504.363        1172.223  
  20095317.158 8  20095316.86347  20095320.25247 105601599.850 8  82286970.31447
      2949.324        2298.173  
  23675927.935 7  23675928.14945  23675935.34945 124417839.314 7  96948970.21345
      5139.682        4004.945  
 18  2 21 16 42 52.0000000  0  9G 2G12G15G20G21G24G25G29G32         
  24280714.323 7  24280713.78844  24280716.36944 127596004.153 7  99425471.00544
      1051.242         819.147  
  23101465.481 7  23101465.98645  23101469.27545 121399011.779 7  94596644.90045
       620.083         483.175  
  22482897.809 8  22482897.47646  22482901.37246 118148408.188 8  92063700.71546
      -580.424        -452.278  
  23863347.363 6  23863346.73243  23863349.57843 125402739.813 6  97716422.92043
      1415.929        1103.318  
  23779534.329 6  23779533.56142  23779538.34842 124962285.717 6  97373214.93742
      4915.584        3830.307  
  21576544.267 8  21576544.05546  21576549.96246 113385487.522 8  88352332.74046
      2616.620        2038.924  
  22555514.564 7  22555513.80846  22555521.53846 118530025.573 7  92361067.60046
      1504.414        1172.279  
  20094756.080 8  20094755.66847  20094759.05047 105598650.838 8  82284672.38447
      2948.732        2297.712  
  23674949.730 6  23674950.19245  23674957.31745 124412699.775 6  96944965.37845
      5139.419        4004.742  
 18  2 21 16 42 53.0000000  0  9G 2G12G15G20G21G24G25G29G32         
  24280514.323 7  24280513.61844  24280516.34244 127594953.007 7  99424651.93444
      1051.034         818.984  
  23101347.581 7  23101347.83445  23101351.33845 121398391.495 7  94596161.56245
       620.439         483.461  
  22483008.222 8  22483007.94046  22483011.79246 118148988.608 8  92064152.98946
      -580.445        -452.293  
  23863078.164 6  23863077.27643  23863080.29743 125401323.681 6  97715319.43043
      1416.324        1103.644  
  23778599.189 6  23778597.88142  23778602.73742 124957369.935 6  97369384.46242
      4915.937        3830.600  
  21576046.339 8  21576046.14946  21576052.03546 113382870.920 8  88350293.83246
      2616.529        2038.851  
  22555228.267 7  22555227.52246  22555235.21446 118528521.038 7  92359895.23546
      1504.619        1172.428  
  20094195.013 8  20094194.56747  20094197.97847 105595702.332 8  82282374.84947
      2948.254        2297.338  
  23673971.986 7  23673972.13445  23673979.22945 124407560.458 7  96940960.72245
      5139.205        4004.566  
 18  2 21 16 42 54.0000000  0  9G 2G12G15G20G21G24G25G29G32         
  24280313.675 7  24280313.33844  24280316.50344 127593902.100 7  99423833.04344
      1050.787         818.801  
  23101229.360 7  23101229.77245  23101233.13945 121397770.907 7  94595677.98645
       620.741         483.695  
  22483118.806 8  22483118.36246  22483122.34546 118149569.084 8  92064605.30746
      -580.503        -452.341  
  23862808.760 6  23862808.11943  23862811.28043 125399907.180 6  97714215.66643
      1416.686        1103.900  
  23777664.586 6  23777662.89542  23777666.98042 124952453.960 6  97365553.82642
      4916.072        3830.715  
  21575548.351 8  21575548.23746  21575554.15146 113380254.492 8  88348255.05646
      2616.342        2038.709  
  22554942.002 7  22554941.08146  22554948.86846 118527016.360 7  92358722.76046
      1504.748        1172.530  
  20093634.110 8  20093633.55047  20093636.98347 105592754.318 8  82280077.69347
      2947.768        2296.966  
  23672994.041 7  23672994.12545  23673001.29345 124402421.357 7  96936956.22445
      5138.992        4004.419  
 18  2 21 16 42 55.0000000  0  9G 2G12G15G20G21G24G25G29G32         
  24280113.699 7  24280113.64244  24280116.57044 127592851.415 7  99423014.32944
      1050.575         818.624  
  23101111.105 7  23101111.44945  23101115.06345 121397150.027 7  94595194.18245
       621.026         483.918  
  22483229.334 8  22483228.81946  22483232.94146 118150149.634 8  92065057.67946
      -580.588        -452.399  
  23862539.184 6  23862538.77043  23862541.80243 125398490.203 6  97713111.54543
      1417.215        1104.301  
  23776728.812 6  23776727.15642  23776731.61342 124947537.724 6  97361722.98542
      4916.365        3830.944  
  21575050.610 8  21575050.34646  21575056.29546 113377638.264 8  88346216.43246
      2616.128        2038.549  
  22554655.570 7  22554654.74246  22554662.55946 118525511.532 7  92357550.16546
      1504.904        1172.655  
  20093073.191 8  20093072.67047  20093076.12147 105589806.833 8  82277780.95147
      2947.219        2296.535  
  23672016.108 7  23672016.20345  23672023.19345 124397282.463 7  96932951.89245
      5138.791        4004.249  
 18  2 21 16 42 56.0000000  0  9G 2G12G15G20G21G24G25G29G32         
  24279913.986 6  24279913.55844  24279916.78844 127591800.926 6  99422195.77144
      1050.391         818.480  
  23100992.990 7  23100993.35845  23100996.64645 121396528.824 7  94594710.12945
       621.364         484.178  
  22483339.677 7  22483339.21646  22483343.45946 118150730.230 7  92065510.08846
      -580.619        -452.427  
  23862269.155 6  23862268.87243  23862271.46743 125397072.864 6  97712007.12043
      1417.519        1104.577  
  23775793.453 6  23775791.95442  23775796.29542 124942621.230 6  97357891.94442
      4916.624        3831.140  
  21574552.840 8  21574552.52346  21574558.49046 113375022.226 8  88344177.96546
      2615.943        2038.387  
  22554369.170 7  22554368.40046  22554376.21846 118524006.570 7  92356377.46546
      1505.029        1172.752  
  20092512.418 8  20092511.87847  20092515.34447 105586859.859 8  82275484.60847
      2946.720        2296.144  
  23671038.218 7  23671038.36445  23671045.39145 124392143.795 7  96928947.74145
      5138.556        4004.060  
 18  2 21 16 42 57.0000000  0  9G 2G12G15G20G21G24G25G29G32         
  24279714.369 7  24279713.76244  24279716.91544 127590750.644 7  99421377.36844
      1050.178         818.326  
  23100874.848 7  23100875.22245  23100878.50845 121395907.300 7  94594225.81445
       621.684         484.446  
  22483450.094 8  22483449.71546  22483453.96646 118151310.862 8  92065962.52246
      -580.649        -452.446  
  23861999.782 6  23861998.49543  23862001.43243 125395655.115 6  97710902.37843
      1417.953        1104.900  
  23774857.715 6  23774856.10342  23774861.62942 124937704.428 6  97354060.68042
      4916.955        3831.376  
  21574055.151 8  21574054.71647  21574060.70547 113372406.316 8  88342139.59147
      2615.845        2038.328  
  22554082.944 7  22554081.98446  22554089.79946 118522501.418 7  92355204.62046
      1505.247        1172.917  
  20091951.759 8  20091951.18147  20091954.57847 105583913.363 8  82273188.63447
      2946.256        2295.788  
  23670060.484 7  23670060.59845  23670067.68145 124387005.281 7  96924943.70645
      5138.436        4003.978  
 18  2 21 16 42 58.0000000  0  9G 2G12G15G20G21G24G25G29G32         
  24279514.782 7  24279514.04044  24279517.01544 127589700.607 7  99420559.15644
      1049.914         818.116  
  23100756.813 7  23100756.99545  23100760.14645 121395285.510 7  94593741.30445
       621.922         484.607  
  22483560.398 8  22483560.18946  22483564.42446 118151891.552 8  92066415.00946
      -580.720        -452.514  
  23861729.502 6  23861728.58643  23861731.95943 125394236.968 6  97709797.32143
      1418.347        1105.214  
  23773921.536 6  23773920.27242  23773926.01242 124932787.419 6  97350229.25742
      4917.113        3831.501  
  21573557.371 8  21573556.92646  21573562.98046 113369790.587 8  88340101.36346
      2615.639        2038.155  
  22553796.457 7  22553795.49346  22553803.41046 118520996.127 7  92354031.66446
      1505.360        1173.012  
  20091391.005 8  20091390.60147  20091393.92547 105580967.386 8  82270893.06447
      2945.718        2295.368  
  23669082.814 7  23669082.86545  23669089.89345 124381867.001 7  96920939.85045
      5138.164        4003.766  
 18  2 21 16 42 59.0000000  0  9G 2G12G15G20G21G24G25G29G32         
  24279315.205 7  24279314.33844  24279317.34244 127588650.784 7  99419741.11444
      1049.716         817.956  
  23100638.498 7  23100638.68844  23100641.82245 121394663.403 7  94593256.54745
       622.265         484.881  
  22483671.133 8  22483670.67146  22483674.91946 118152472.309 8  92066867.54546
      -580.790        -452.561  
  23861459.058 6  23861459.00443  23861462.19543 125392818.410 6  97708691.95543
      1418.763        1105.521  
  23772986.060 6  23772984.70842  23772990.79842 124927870.163 6  97346397.63642
      4917.380        3831.721  
  21573059.622 8  21573059.16146  21573065.23246 113367175.003 8  88338063.24946
      2615.511        2038.057  
  22553510.177 7  22553508.98946  22553517.04246 118519490.702 7  92352858.60446
      1505.492        1173.113  
  20090830.486 8  20090830.07547  20090833.43247 105578021.905 8  82268597.88947
      2945.232        2294.979  
  23668104.956 7  23668105.11945  23668112.18445 124376728.935 7  96916936.16645
      5137.958        4003.598  
 18  2 21 16 43  0.0000000  0  9G 2G12G15G20G21G24G25G29G32         
  24279115.529 7  24279114.58944  24279117.67544 127587601.171 7  99418923.22744
      1049.508         817.810  
  23100520.001 7  23100520.29844  23100523.40344 121394040.971 7  94592771.53644
       622.596         485.138  
  22483781.654 8  22483781.26746  22483785.48046 118153053.106 8  92067320.11446
      -580.818        -452.584  
  23861189.582 6  23861188.49443  23861192.18943 125391399.479 6  97707586.29743
      1419.116        1105.803  
  23772050.034 6  23772049.24342  23772055.02442 124922952.570 6  97342565.74942
      4917.760        3832.019  
  21572561.775 8  21572561.49446  21572567.53846 113364559.579 8  88336025.25446
      2615.344        2037.935  
  22553223.516 7  22553222.51246  22553230.39146 118517985.075 7  92351685.38746
      1505.727        1173.294  
  20090270.066 8  20090269.68047  20090273.01847 105575076.922 8  82266303.09447
      2944.734        2294.604  
  23667127.432 7  23667127.40745  23667134.39345 124371591.092 7  96912932.64645
      5137.732        4003.438  
 18  2 21 16 43  1.0000000  0  9G 2G12G15G20G21G24G25G29G32         
  24278915.656 7  24278914.96444  24278917.92344 127586551.778 7  99418105.51944
      1049.284         817.618  
  23100401.529 7  23100401.72944  23100405.03744 121393418.279 7  94592286.31744
       622.820         485.322  
  22483892.443 8  22483891.80646  22483895.95446 118153633.979 8  92067772.74146
      -580.910        -452.656  
  23860918.526 6  23860918.26043  23860921.91343 125389980.148 6  97706480.32843
      1419.533        1106.125  
  23771114.244 6  23771113.54242  23771118.92242 124918034.805 6  97338733.73042
      4917.852        3832.085  
  21572064.191 8  21572063.80646  21572069.84946 113361944.351 8  88333987.41546
      2615.129        2037.761  
  22552937.182 7  22552935.99346  22552943.77746 118516479.350 7  92350512.10046
      1505.774        1173.323  
  20089709.756 8  20089709.32747  20089712.76447 105572132.476 8  82264008.71947
      2944.178        2294.165  
  23666149.954 7  23666149.81745  23666156.79645 124366453.414 7  96908929.26245
      5137.596        4003.316  
 18  2 21 16 43  2.0000000  0  9G 2G12G15G20G21G24G25G29G32         
  24278715.946 7  24278715.45944  24278718.29344 127585502.669 7  99417288.03644
      1048.966         817.372  
  23100283.172 7  23100282.90744  23100286.46844 121392795.286 7  94591800.86544
       623.144         485.569  
  22484003.187 8  22484002.33246  22484006.48346 118154214.921 8  92068225.42546
      -580.977        -452.714  
  23860648.506 6  23860648.25443  23860651.97343 125388560.435 6  97705374.05843
      1419.903        1106.419  
  23770178.125 6  23770177.13342  23770183.11842 124913116.811 6  97334901.55342
      4918.108        3832.255  
  21571566.561 8  21571566.18446  21571572.23946 113359329.326 8  88331949.73546
      2614.925        2037.601  
  22552650.283 7  22552649.35946  22552657.26946 118514973.472 7  92349338.68646
      1505.956        1173.476  
  20089149.639 8  20089149.10447  20089152.50947 105569188.557 8  82261714.75547
      2943.654        2293.758  
  23665172.167 7  23665172.12145  23665179.30245 124361316.023 7  96904926.10645
      5137.248        4003.041  
 18  2 21 16 43  3.0000000  0  9G 2G12G15G20G21G24G25G29G32         
  24278516.121 7  24278515.74644  24278518.48344 127584453.666 7  99416470.63344
      1048.950         817.361  
  23100164.679 7  23100164.29644  23100167.87744 121392171.943 7  94591315.14344
       623.518         485.856  
  22484113.771 8  22484112.86945  22484116.87045 118154795.874 8  92068678.11545
      -580.958        -452.692  
  23860378.441 6  23860377.78143  23860381.77943 125387140.272 6  97704267.43243
      1420.388        1106.805  
  23769242.393 6  23769241.33342  23769247.23642 124908198.496 6  97331069.09842
      4918.475        3832.594  
  21571068.877 8  21571068.62046  21571074.61846 113356714.386 8  88329912.12246
      2614.896        2037.579  
  22552363.773 7  22552362.79446  22552370.62746 118513467.378 7  92348165.10346
      1506.201        1173.669  
  20088589.454 8  20088588.95647  20088592.41447 105566245.075 8  82259421.13247
      2943.264        2293.453  
  23664194.295 7  23664194.55545  23664201.70845 124356178.743 7  96900923.03845
      5137.223        4003.025  
 18  2 21 16 43  4.0000000  0  9G 2G12G15G20G21G24G25G29G32         
  24278316.642 7  24278316.19544  24278318.92344 127583404.926 7  99415653.42444
      1048.609         817.113  
  23100046.074 7  23100045.70944  23100049.17144 121391548.308 7  94590829.19544
       623.781         486.062  
  22484224.269 8  22484223.37445  22484227.37645 118155376.883 8  92069130.85145
      -581.037        -452.758  
  23860108.287 6  23860106.94943  23860111.68143 125385719.715 6  97703160.51643
      1420.754        1107.060  
  23768306.478 6  23768305.16742  23768312.21542 124903279.933 6  97327236.45442
      4918.687        3832.738  
  21570571.337 8  21570571.07846  21570577.00646 113354099.649 8  88327874.66446
      2614.637        2037.380  
  22552077.192 7  22552076.22746  22552084.00446 118511961.169 7  92346991.43346
      1506.267        1173.713  
  20088029.403 8  20088028.96447  20088032.43047 105563302.121 8  82257127.91747
      2942.691        2293.010  
  23663216.426 7  23663216.99145  23663224.00845 124351041.710 7  96896920.15345
      5136.910        4002.793  
 18  2 21 16 43  5.0000000  0  9G 2G12G15G20G21G24G25G29G32         
  24278117.021 7  24278116.72644  24278119.41244 127582356.377 7  99414836.37844
      1048.452         816.964  
  23099927.024 7  23099926.98244  23099930.30744 121390924.346 7  94590342.99344
       624.126         486.328  
  22484334.768 8  22484334.01846  22484337.87446 118155957.924 8  92069583.60946
      -581.056        -452.770  
  23859838.618 6  23859836.36143  23859841.62143 125384298.718 6  97702053.26743
      1421.216        1107.416  
  23767370.117 6  23767369.52242  23767376.03442 124898361.087 6  97323403.59942
      4918.987        3832.961  
  21570073.845 8  21570073.50046  21570079.49146 113351485.042 8  88325837.30946
      2614.541        2037.304  
  22551790.576 7  22551789.53446  22551797.31246 118510454.777 7  92345817.62246
      1506.484        1173.881  
  20087469.610 8  20087469.08047  20087472.47847 105560359.654 8  82254835.08847
      2942.223        2292.636  
  23662239.257 7  23662239.45445  23662246.58245 124345904.862 7  96892917.41545
      5136.755        4002.663  
 18  2 21 16 43  6.0000000  0  9G 2G12G15G20G21G24G25G29G32         
  24277917.789 7  24277917.08744  24277919.73944 127581308.143 7  99414019.57344
      1048.077         816.685  
  23099808.138 7  23099808.06844  23099811.69744 121390300.143 7  94589856.59544
       624.323         486.496  
  22484445.139 8  22484444.64246  22484448.35046 118156539.081 8  92070036.46246
      -581.215        -452.900  
  23859568.102 6  23859565.84043  23859571.33443 125382877.399 6  97700945.73743
      1421.480        1107.671  
  23766433.961 6  23766433.55942  23766439.08942 124893442.055 6  97319570.59742
      4919.124        3833.076  
  21569576.323 8  21569575.99646  21569581.96846 113348870.650 8  88323800.12246
      2614.285        2037.103  
  22551503.694 7  22551502.90846  22551510.54346 118508948.278 7  92344643.72546
      1506.552        1173.940  
  20086909.868 8  20086909.25747  20086912.64247 105557417.738 8  82252542.68747
      2941.640        2292.188  
  23661261.734 7  23661262.10345  23661269.27845 124340768.290 7  96888914.89545
      5136.434        4002.412  
 18  2 21 16 43  7.0000000  0  9G 2G12G15G20G21G24G25G29G32         
  24277718.191 6  24277717.70544  24277720.36844 127580260.100 6  99413202.92344
      1047.947         816.572  
  23099689.370 7  23099689.32744  23099692.95044 121389675.639 7  94589369.96644
       624.655         486.745  
  22484555.782 8  22484555.26945  22484559.03245 118157120.328 8  92070489.38545
      -581.293        -452.958  
  23859297.273 6  23859295.09743  23859300.42143 125381455.721 6  97699837.93243
      1421.857        1107.942  
  23765497.150 6  23765497.50942  23765502.88342 124888522.786 6  97315737.40642
      4919.389        3833.284  
  21569078.899 8  21569078.59646  21569084.45146 113346256.449 8  88321763.08346
      2614.107        2036.965  
  22551216.874 8  22551216.25146  22551223.85046 118507441.649 8  92343469.73146
      1506.694        1174.042  
  20086350.034 8  20086349.53447  20086352.90747 105554476.361 8  82250250.70747
      2941.107        2291.769  
  23660284.315 7  23660284.64645  23660291.94245 124335631.934 7  96884912.54345
      5136.248        4002.268  
 18  2 21 16 43  8.0000000  0  9G 2G12G15G20G21G24G25G29G32         
  24277519.215 7  24277518.33144  24277521.03744 127579212.249 7  99412386.41644
      1047.755         816.436  
  23099570.413 7  23099570.13444  23099574.00644 121389050.787 7  94588883.07044
       625.026         487.030  
  22484666.204 8  22484665.79745  22484669.70545 118157701.603 8  92070942.32545
      -581.288        -452.948  
  23859026.221 6  23859024.44443  23859029.87143 125380033.575 6  97698729.75943
      1422.380        1108.356  
  23764561.740 6  23764561.42242  23764566.07142 124883603.235 6  97311903.98142
      4919.691        3833.543  
  21568581.349 8  21568581.07846  21568587.00646 113343642.381 8  88319726.14946
      2614.001        2036.881  
  22550930.096 7  22550929.43445  22550937.14546 118505934.802 7  92342295.56446
      1506.956        1174.253  
  20085790.374 8  20085789.90747  20085793.24547 105551535.439 8  82247959.08247
      2940.695        2291.447  
  23659306.902 7  23659307.26045  23659314.47645 124330495.730 7  96880910.31245
      5136.128        4002.170  
 18  2 21 16 43  9.0000000  0  9G 2G12G15G20G21G24G25G29G32         
  24277319.530 7  24277318.87944  24277321.73044 127578164.636 7  99411570.09444
      1047.493         816.229  
  23099451.530 7  23099451.25744  23099454.96344 121388425.666 7  94588395.96544
       625.255         487.210  
  22484776.647 8  22484776.45045  22484780.32646 118158282.934 8  92071395.30546
      -581.358        -453.000  
  23858755.977 6  23858753.76043  23858758.80443 125378611.050 6  97697621.31143
      1422.715        1108.586  
  23763626.303 6  23763624.79142  23763629.80542 124878683.489 6  97308070.40542
      4919.844        3833.652  
  21568083.990 8  21568083.63646  21568089.64246 113341028.523 8  88317689.37446
      2613.752        2036.695  
  22550643.287 8  22550642.73945  22550650.34646 118504427.858 8  92341121.32246
      1506.993        1174.279  
  20085230.770 8  20085230.38947  20085233.71047 105548595.050 8  82245667.86947
      2940.122        2291.008  
  23658329.391 7  23658329.93945  23658337.17845 124325359.791 7  96876908.28545
      5135.805        4001.926  
 18  2 21 16 43 10.0000000  0  9G 2G12G15G20G21G24G25G29G32         
  24277119.911 7  24277119.62244  24277122.29844 127577117.301 7  99410753.99644
      1047.196         815.987  
  23099332.526 7  23099332.32344  23099335.84244 121387800.285 7  94587908.65744
       625.511         487.409  
  22484887.427 8  22484887.20845  22484891.05046 118158864.400 8  92071848.39946
      -581.535        -453.152  
  23858485.156 6  23858483.06143  23858488.28243 125377188.196 6  97696512.59443
      1423.018        1108.851  
  23762689.616 6  23762688.53042  23762693.97342 124873763.484 6  97304236.64642
      4920.135        3833.850  
  21567586.624 8  21567586.34346  21567592.25946 113338414.896 8  88315652.78346
      2613.512        2036.499  
  22550356.643 7  22550356.07646  22550363.57246 118502920.784 7  92339946.98246
      1507.139        1174.390  
  20084671.317 8  20084670.95547  20084674.28747 105545655.209 8  82243377.08947
      2939.566        2290.563  
  23657352.062 7  23657352.58045  23657360.05245 124320224.057 7  96872906.41945
      5135.633        4001.784  
 18  2 21 16 43 11.0000000  0  9G 2G12G15G20G21G24G25G29G32         
  24276921.041 7  24276920.49244  24276923.09744 127576070.140 7  99409938.02644
      1047.074         815.906  
  23099213.109 7  23099213.33544  23099216.83144 121387174.554 7  94587421.08544
       625.906         487.704  
  22484998.194 8  22484997.99746  22485001.61246 118159445.889 8  92072301.50646
      -581.499        -453.113  
  23858214.525 6  23858212.25843  23858217.13243 125375764.880 6  97695403.51343
      1423.548        1109.263  
  23761753.375 6  23761752.17242  23761757.23142 124868843.211 6  97300402.67042
      4920.407        3834.085  
  21567089.102 8  21567088.98646  21567094.87246 113335801.400 8  88313616.29646
      2613.431        2036.435  
  22550069.816 7  22550069.30746  22550076.80046 118501413.538 7  92338772.51246
      1507.331        1174.534  
  20084112.002 8  20084111.60847  20084114.95547 105542715.856 8  82241086.68647
      2939.110        2290.214  
  23656375.100 7  23656375.24045  23656382.70645 124315088.552 7  96868904.73445
      5135.389        4001.595  
 18  2 21 16 43 12.0000000  0  9G 2G12G15G20G21G24G25G29G32         
  24276721.974 7  24276721.03744  24276723.55944 127575023.208 7  99409122.23444
      1046.818         815.702  
  23099094.045 7  23099094.20844  23099097.84444 121386548.560 7  94586933.30544
       626.125         487.883  
  22485108.859 8  22485108.65846  22485112.19346 118160027.435 8  92072754.65946
      -581.575        -453.175  
  23857943.119 6  23857941.59243  23857946.16543 125374341.173 6  97694294.11943
      1423.901        1109.551  
  23760817.135 6  23760815.77142  23760820.95042 124863922.668 6  97296568.46642
      4920.677        3834.317  
  21566591.836 8  21566591.65446  21566597.52046 113333188.081 8  88311579.94246
      2613.231        2036.286  
  22549783.029 7  22549782.46546  22549790.02846 118499906.154 7  92337597.92646
      1507.453        1174.645  
  20083552.813 8  20083552.33047  20083555.73847 105539777.015 8  82238796.68047
      2938.585        2289.807  
  23655397.545 7  23655398.18045  23655405.39045 124309953.274 7  96864903.21945
      5135.165        4001.430  
 18  2 21 16 43 13.0000000  0  9G 2G12G15G20G21G24G25G29G32         
  24276522.825 7  24276521.87444  24276524.42144 127573976.472 7  99408306.59344
      1046.637         815.566  
  23098974.931 7  23098974.99844  23098978.67444 121385922.160 7  94586445.20044
       626.602         488.268  
  22485219.578 8  22485219.27046  22485222.82146 118160608.960 8  92073207.79546
      -581.514        -453.129  
  23857672.540 6  23857670.72243  23857675.36943 125372917.040 6  97693184.39643
      1424.346        1109.888  
  23759880.550 6  23759879.49042  23759884.20642 124859001.835 6  97292734.05742
      4920.979        3834.511  
  21566094.481 8  21566094.32546  21566100.27946 113330574.847 8  88309543.65746
      2613.191        2036.251  
  22549496.254 8  22549495.60246  22549503.19346 118498398.532 8  92336423.15346
      1507.741        1174.866  
  20082993.613 8  20082993.17547  20082996.58147 105536838.608 8  82236507.01347
      2938.190        2289.498  
  23654420.300 7  23654421.09445  23654428.24745 124304818.095 7  96860901.78345
      5135.129        4001.398  
 18  2 21 16 43 14.0000000  0  9G 2G12G15G20G21G24G25G29G32         
  24276323.758 7  24276322.79144  24276325.32444 127572929.896 7  99407491.07844
      1046.496         815.451  
  23098855.628 7  23098855.62244  23098859.36544 121385295.473 7  94585956.86844
       626.832         488.445  
  22485330.319 8  22485329.92246  22485333.56246 118161190.541 8  92073660.97246
      -581.610        -453.197  
  23857401.735 6  23857399.78743  23857404.64143 125371492.430 6  97692074.31143
      1424.849        1110.265  
  23758944.021 6  23758943.46842  23758947.78642 124854080.739 6  97288899.43742
      4921.227        3834.726  
  21565597.128 8  21565597.08746  21565603.04246 113327961.794 8  88307507.51346
      2612.962        2036.074  
  22549209.506 7  22549208.68746  22549216.16346 118496890.746 7  92335248.25846
      1507.869        1174.956  
  20082434.552 8  20082434.12447  20082437.52147 105533900.713 8  82234217.74347
      2937.639        2289.070  
  23653443.123 7  23653443.86545  23653451.01345 124299683.141 7  96856900.52545
      5134.842        4001.168  
 18  2 21 16 43 15.0000000  0  9G 2G12G15G20G21G24G25G29G32         
  24276124.687 7  24276123.62744  24276126.36444 127571883.634 7  99406675.79944
      1046.105         815.161  
  23098736.633 7  23098736.23844  23098740.07245 121384668.493 7  94585468.30845
       627.125         488.674  
  22485440.923 8  22485440.69146  22485444.35346 118161772.186 8  92074114.20346
      -581.675        -453.258  
  23857130.706 6  23857128.51943  23857133.11443 125370067.501 6  97690963.98743
      1425.087        1110.443  
  23758007.337 6  23758007.04742  23758011.59242 124849159.407 6  97285064.63342
      4921.450        3834.896  
  21565099.873 8  21565099.94846  21565105.86346 113325348.965 8  88305471.53946
      2612.716        2035.888  
  22548922.498 7  22548921.80646  22548929.20546 118495382.849 7  92334073.26946
      1507.951        1175.036  
  20081875.518 8  20081875.16447  20081878.58247 105530963.352 8  82231928.89147
      2937.094        2288.644  
  23652465.800 7  23652466.88045  23652474.01445 124294548.413 7  96852899.44245
      5134.616        4000.996  
 18  2 21 16 43 16.0000000  0  9G 2G12G15G20G21G24G25G29G32         
  24275925.389 7  24275924.57444  24275927.11844 127570837.586 7  99405860.70744
      1045.941         814.999  
  23098617.236 7  23098616.85244  23098620.66445 121384041.283 7  94584979.57545
       627.326         488.820  
  22485551.634 8  22485551.43246  22485554.95546 118162353.945 8  92074567.52146
      -581.818        -453.361  
  23856859.976 6  23856857.27643  23856861.72143 125368642.207 6  97689853.38043
      1425.476        1110.750  
  23757070.951 6  23757070.83942  23757075.20242 124844237.927 6  97281229.71542
      4921.554        3834.974  
  21564602.775 8  21564602.81446  21564608.72846 113322736.334 8  88303435.72446
      2612.533        2035.735  
  22548635.350 7  22548634.85846  22548642.24346 118493874.849 7  92332898.20646
      1508.052        1175.099  
  20081316.621 8  20081316.33447  20081319.74047 105528026.551 8  82229640.47547
      2936.520        2288.197  
  23651488.764 7  23651489.79545  23651496.83445 124289413.966 7  96848898.57845
      5134.306        4000.754  
 18  2 21 16 43 17.0000000  0  9G 2G12G15G20G21G24G25G29G32         
  24275726.265 7  24275725.51244  24275728.11944 127569791.766 7  99405045.77844
      1045.705         814.848  
  23098497.622 7  23098497.37744  23098501.37445 121383413.716 7  94584490.55745
       627.745         489.161  
  22485662.457 8  22485662.05046  22485665.63346 118162935.719 8  92075020.84846
      -581.781        -453.331  
  23856588.034 6  23856585.87543  23856590.93443 125367216.486 6  97688742.43843
      1425.935        1111.108  
  23756134.050 6  23756134.44842  23756138.48342 124839316.107 6  97277394.53042
      4921.989        3835.318  
  21564105.610 8  21564105.70346  21564111.56346 113320123.819 8  88301400.00046
      2612.458        2035.679  
  22548348.314 8  22548347.85846  22548355.25646 118492366.685 8  92331723.01046
      1508.246        1175.263  
  20080757.788 8  20080757.53947  20080760.97647 105525090.219 8  82227352.42247
      2936.098        2287.872  
  23650511.426 7  23650512.92445  23650519.84345 124284279.707 7  96844897.85645
      5134.164        4000.652  
 18  2 21 16 43 18.0000000  0  9G 2G12G15G20G21G24G25G29G32         
  24275527.456 6  24275526.41944  24275529.00344 127568746.158 6  99404231.01144
      1045.504         814.685  
  23098378.236 7  23098377.99944  23098381.95045 121382785.869 7  94584001.32245
       627.987         489.343  
  22485772.850 8  22485772.70146  22485776.29646 118163517.563 8  92075474.23046
      -581.879        -453.410  
  23856316.398 6  23856314.48843  23856319.39043 125365790.358 6  97687631.15643
      1426.331        1111.452  
  23755197.440 6  23755197.69842  23755202.25442 124834394.040 6  97273559.15742
      4922.192        3835.468  
  21563608.417 8  21563608.62946  21563614.51346 113317511.493 8  88299364.42346
      2612.230        2035.504  
  22548061.206 7  22548060.86146  22548068.28346 118490858.355 7  92330547.68946
      1508.412        1175.384  
  20080199.155 8  20080198.91447  20080202.32847 105522154.417 8  82225064.78247
      2935.537        2287.433  
  23649534.652 7  23649535.86945  23649542.87645 124279145.643 7  96840897.29045
      5133.966        4000.487  
 18  2 21 16 43 19.0000000  0  9G 2G12G15G20G21G24G25G29G32         
  24275328.610 7  24275327.56944  24275330.19044 127567700.776 7  99403416.42844
      1045.268         814.491  
  23098258.563 7  23098258.65344  23098262.50745 121382157.712 7  94583511.85145
       628.312         489.588  
  22485883.480 8  22485883.50746  22485887.01546 118164099.444 8  92075927.64646
      -581.899        -453.432  
  23856044.596 6  23856043.16543  23856048.12743 125364363.832 6  97686519.57843
      1426.724        1111.727  
  23754261.013 6  23754261.02043  23754265.46642 124829471.815 6  97269723.65242
      4922.304        3835.570  
  21563111.429 8  21563111.57046  21563117.36546 113314899.376 8  88297329.00746
      2612.014        2035.335  
  22547774.345 8  22547773.87146  22547781.14146 118489349.876 8  92329372.25346
      1508.554        1175.492  
  20079640.555 8  20079640.38347  20079643.82647 105519219.117 8  82222777.53547
      2935.048        2287.050  
  23648557.669 7  23648558.86645  23648565.91945 124274011.833 7  96836896.92245
      5133.684        4000.269  
 18  2 21 16 43 20.0000000  0  9G 2G12G15G20G21G24G25G29G32         
  24275129.594 7  24275128.60344  24275131.25944 127566655.639 7  99402602.04244
      1045.014         814.288  
  23098138.945 7  23098139.04545  23098142.90845 121381529.322 7  94583022.19545
       628.505         489.748  
  22485994.293 8  22485994.21646  22485997.70846 118164681.451 8  92076381.15746
      -582.071        -453.559  
  23855773.131 6  23855771.37743  23855776.19343 125362936.978 6  97685407.75743
      1427.018        1111.942  
  23753324.176 6  23753323.89043  23753328.85743 124824549.322 6  97265887.94543
      4922.626        3835.808  
  21562614.514 8  21562614.48146  21562620.26746 113312287.477 8  88295293.76346
      2611.789        2035.158  
  22547487.453 8  22547486.84746  22547494.13046 118487841.303 8  92328196.74446
      1508.620        1175.546  
  20079082.141 9  20079081.91147  20079085.34747 105516284.368 9  82220490.71947
      2934.474        2286.600  
  23647581.196 7  23647581.96245  23647589.10145 124268878.249 7  96832896.72945
      5133.471        4000.105  
 18  2 21 16 43 21.0000000  0  9G 2G12G15G20G21G24G25G29G32         
  24274930.488 6  24274930.01244  24274932.27044 127565610.729 6  99401787.82544
      1044.796         814.133  
  23098019.348 7  23098019.57045  23098023.07245 121380900.585 7  94582532.27545
       628.911         490.053  
  22486105.122 7  22486104.98246  22486108.39246 118165263.481 7  92076834.68946
      -582.041        -453.543  
  23855501.696 6  23855500.03343  23855504.97643 125361509.688 6  97684295.57443
      1427.508        1112.364  
  23752387.311 6  23752387.04043  23752392.21743 124819626.536 6  97262052.02043
      4922.932        3836.034  
  21562117.367 8  21562117.47446  21562123.23046 113309675.749 8  88293258.64846
      2611.643        2035.051  
  22547200.311 8  22547199.79846  22547207.08446 118486332.545 8  92327021.08846
      1508.850        1175.730  
  20078523.805 8  20078523.52447  20078526.98847 105513350.127 8  82218204.29647
      2933.987        2286.227  
  23646604.405 7  23646605.04645  23646612.23545 124263744.871 7  96828896.69945
      5133.275        3999.950  
 18  2 21 16 43 22.0000000  0  9G 2G12G15G20G21G24G25G29G32         
  24274732.022 7  24274731.15544  24274733.36944 127564566.107 7  99400973.83544
      1044.479         813.877  
  23097899.563 7  23097899.71945  23097903.59445 121380271.613 7  94582042.17245
       629.089         490.193  
  22486215.954 8  22486215.75046  22486219.21546 118165845.595 8  92077288.27946
      -582.156        -453.619  
  23855230.495 6  23855228.88943  23855233.22043 125360082.052 6  97683183.12743
      1427.809        1112.579  
  23751450.339 6  23751450.24143  23751455.32343 124814703.559 6  97258215.93443
      4923.073        3836.166  
  21561620.539 8  21561620.52746  21561626.25946 113307064.224 8  88291223.69246
      2611.424        2034.877  
  22546913.027 8  22546912.75646  22546919.97646 118484823.699 8  92325845.36446
      1508.890        1175.757  
  20077965.408 8  20077965.31747  20077968.79147 105510416.419 8  82215918.28947
      2933.442        2285.799  
  23645627.172 7  23645628.22545  23645635.34845 124258611.735 7  96824896.85545
      5133.015        3999.750  
 18  2 21 16 43 23.0000000  0  9G 2G12G15G20G21G24G25G29G32         
  24274533.083 7  24274532.55144  24274534.69844 127563521.700 7  99400160.01344
      1044.299         813.737  
  23097779.862 7  23097779.89845  23097783.79245 121379642.332 7  94581551.81545
       629.436         490.484  
  22486326.790 8  22486326.53646  22486330.04846 118166427.816 8  92077741.95946
      -582.275        -453.725  
  23854958.428 6  23854957.23943  23854961.36443 125358654.040 6  97682070.40043
      1428.200        1112.867  
  23750513.205 6  23750513.28343  23750518.77943 124809780.382 6  97254379.69643
      4923.276        3836.314  
  21561123.536 8  21561123.56246  21561129.29646 113304452.895 8  88289188.88946
      2611.231        2034.726  
  22546625.899 8  22546625.57546  22546632.81046 118483314.701 8  92324669.52246
      1509.074        1175.902  
  20077407.307 8  20077407.17147  20077410.61847 105507483.243 8  82213632.69847
      2932.909        2285.383  
  23644650.253 7  23644651.41545  23644658.67245 124253478.881 7  96820897.23045
      5132.712        3999.516  
 18  2 21 16 43 24.0000000  0  9G 2G12G15G20G21G24G25G29G32         
  24274334.258 7  24274333.91744  24274336.08144 127562477.511 7  99399346.36244
      1044.080         813.566  
  23097659.902 7  23097659.97745  23097664.11445 121379012.750 7  94581061.23645
       629.732         490.691  
  22486437.664 8  22486437.31546  22486440.88646 118167010.052 8  92078195.64646
      -582.244        -453.690  
  23854686.605 6  23854685.63643  23854689.50943 125357225.624 6  97680957.35443
      1428.618        1113.205  
  23749576.264 6  23749576.06343  23749581.99443 124804856.916 6  97250543.23243
      4923.612        3836.577  
  21560626.637 8  21560626.73646  21560632.42346 113301841.702 8  88287154.19546
      2611.124        2034.640  
  22546338.925 8  22546338.42146  22546345.70546 118481805.541 8  92323493.55346
      1509.240        1176.032  
  20076849.299 8  20076849.09847  20076852.53147 105504550.561 8  82211347.49047
      2932.436        2285.016  
  23643674.043 7  23643674.64045  23643681.85145 124248346.170 7  96816897.72245
      5132.641        3999.448  
 18  2 21 16 43 25.0000000  0  9G 2G12G15G20G21G24G25G29G32         
  24274135.323 7  24274135.07244  24274137.39844 127561433.617 7  99398532.94244
      1043.746         813.304  
  23097540.142 7  23097540.29045  23097544.18645 121378382.913 7  94580570.45645
       629.963         490.880  
  22486548.316 8  22486548.24446  22486551.68846 118167592.406 8  92078649.42746
      -582.413        -453.828  
  23854414.375 6  23854413.81443  23854417.91743 125355796.808 6  97679844.00043
      1429.016        1113.509  
  23748639.314 6  23748639.52543  23748644.94943 124799933.292 6  97246706.62943
      4923.702        3836.672  
  21560129.745 8  21560129.78146  21560135.54246 113299230.733 8  88285119.67346
      2610.857        2034.435  
  22546051.524 8  22546051.18546  22546058.44246 118480296.293 8  92322317.51446
      1509.293        1176.074  
  20076291.305 8  20076291.15547  20076294.57747 105501618.448 8  82209062.72747
      2931.827        2284.540  
  23642697.359 6  23642698.04045  23642705.28245 124243213.758 6  96812898.43845
      5132.261        3999.173  
 18  2 21 16 43 26.0000000  0  9G 2G12G15G20G21G24G25G29G32         
  24273936.470 7  24273936.85544  24273938.94044 127560389.964 7  99397719.70744
      1043.533         813.143  
  23097420.380 7  23097420.12245  23097424.17745 121377752.805 7  94580079.46045
       630.244         491.103  
  22486659.098 8  22486659.06546  22486662.46646 118168174.826 8  92079103.25946
      -582.452        -453.857  
  23854142.262 6  23854141.79343  23854145.90043 125354367.688 6  97678730.38943
      1429.273        1113.739  
  23747702.755 6  23747702.88143  23747707.64443 124795009.377 6  97242869.82543
      4924.061        3836.903  
  21559633.159 8  21559632.98746  21559638.74246 113296619.982 8  88283085.32146
      2610.643        2034.267  
  22545764.440 7  22545763.96546  22545771.17146 118478786.888 7  92321141.35446
      1509.484        1176.220  
  20075733.325 8  20075733.27547  20075736.75247 105498686.857 8  82206778.37047
      2931.331        2284.155  
  23641720.897 7  23641721.45845  23641728.60545 124238081.559 7  96808899.32445
      5132.093        3999.027  
 18  2 21 16 43 27.0000000  0  9G 2G12G15G20G21G24G25G29G32         
  24273737.869 7  24273738.28444  24273740.45644 127559346.497 7  99396906.61844
      1043.373         813.015  
  23097300.471 7  23097300.14245  23097304.23945 121377122.367 7  94579588.21045
       630.604         491.378  
  22486769.909 8  22486769.98046  22486773.34546 118168757.297 8  92079557.13546
      -582.497        -453.898  
  23853870.192 6  23853870.27243  23853873.84243 125352938.146 6  97677616.45443
      1429.753        1114.096  
  23746765.885 6  23746765.54043  23746771.03943 124790085.254 6  97239032.85043
      4924.226        3837.061  
  21559136.221 8  21559136.18246  21559141.93146 113294009.372 8  88281051.07946
      2610.538        2034.187  
  22545477.270 8  22545476.70546  22545483.82346 118477277.335 8  92319965.08146
      1509.626        1176.330  
  20075175.553 8  20075175.54247  20075178.94447 105495755.773 8  82204494.40947
      2930.830        2283.763  
  23640744.162 7  23640744.81345  23640752.03045 124232949.586 7  96804900.39345
      5131.859        3998.841  
 18  2 21 16 43 28.0000000  0  9G 2G12G15G20G21G24G25G29G32         
  24273539.499 6  24273539.42644  24273542.09944 127558303.280 6  99396093.71744
      1043.092         812.807  
  23097180.599 7  23097180.23545  23097184.17045 121376491.674 7  94579096.76045
       630.820         491.550  
  22486880.890 8  22486880.80346  22486884.30646 118169339.830 8  92080011.05246
      -582.564        -453.938  
  23853598.525 6  23853598.15643  23853601.76543 125351508.207 6  97676502.21943
      1430.137        1114.385  
  23745828.734 7  23745828.47143  23745833.63243 124785160.843 7  97235195.65343
      4924.555        3837.307  
  21558639.530 8  21558639.42046  21558645.18746 113291398.942 8  88279016.97746
      2610.341        2034.031  
  22545189.991 8  22545189.36946  22545196.61346 118475767.646 8  92318788.70246
      1509.757        1176.431  
  20074617.929 8  20074617.88047  20074621.29547 105492825.215 8  82202210.85547
      2930.295        2283.349  
  23639767.616 7  23639768.25745  23639775.23445 124227817.830 7  96800901.62245
      5131.648        3998.690  
 18  2 21 16 43 29.0000000  0  9G 2G12G15G20G21G24G25G29G32         
  24273340.626 6  24273340.70844  24273343.35644 127557260.346 6  99395281.04844
      1042.793         812.553  
  23097060.497 7  23097060.36145  23097063.97445 121375860.730 7  94578605.11345
       631.069         491.744  
  22486991.769 8  22486991.67446  22486995.16046 118169922.475 8  92080465.06446
      -582.702        -454.060  
  23853326.042 6  23853326.07943  23853329.50643 125350077.926 6  97675387.72643
      1430.451        1114.622  
  23744891.815 6  23744891.10843  23744896.31043 124780236.274 6  97231358.33543
      4924.649        3837.379  
  21558142.838 8  21558142.67746  21558148.43346 113288788.730 8  88276983.04846
      2610.102        2033.842  
  22544902.790 7  22544902.03546  22544909.34646 118474257.867 7  92317612.25146
      1509.824        1176.487  
  20074060.425 8  20074060.38847  20074063.78847 105489895.216 8  82199927.74147
      2929.719        2282.895  
  23638791.391 7  23638791.77245  23638798.74245 124222686.339 7  96796903.05945
      5131.358        3998.459  
 18  2 21 16 43 30.0000000  0  9G 2G12G15G20G21G24G25G29G32         
  24273142.250 6  24273142.16744  24273145.02244 127556217.632 6  99394468.54844
      1042.604         812.415  
  23096940.368 7  23096940.23845  23096943.77445 121375229.466 7  94578113.21745
       631.423         492.022  
  22487102.747 8  22487102.59546  22487106.16046 118170505.170 8  92080919.11446
      -582.719        -454.069  
  23853053.492 6  23853053.77043  23853057.41043 125348647.243 6  97674272.90843
      1430.885        1114.979  
  23743954.663 6  23743954.18843  23743959.14543 124775311.461 6  97227520.81043
      4924.934        3837.628  
  21557646.123 8  21557646.06846  21557651.77246 113286178.703 8  88274949.25846
      2609.935        2033.721  
  22544615.575 8  22544614.65846  22544621.96746 118472747.922 8  92316435.67046
      1510.028        1176.645  
  20073503.115 8  20073502.97447  20073506.27747 105486965.719 8  82197645.01547
      2929.246        2282.531  
  23637815.288 7  23637815.32645  23637822.41545 124217555.085 7  96792904.68445
      5131.135        3998.280  
 18  2 21 16 43 31.0000000  0  9G 2G12G15G20G21G24G25G29G32         
  24272943.558 6  24272943.93844  24272946.55544 127555175.116 6  99393656.19344
      1042.417         812.282  
  23096820.124 7  23096820.06245  23096823.73545 121374597.895 7  94577621.08645
       631.725         492.248  
  22487213.546 8  22487213.48746  22487217.08646 118171087.916 8  92081373.20446
      -582.772        -454.109  
  23852780.991 6  23852781.36143  23852784.81743 125347216.152 6  97673157.77243
      1431.294        1115.295  
  23743017.548 7  23743016.72843  23743022.11643 124770386.387 7  97223683.09743
      4925.204        3837.807  
  21557149.628 8  21557149.47946  21557155.09346 113283568.854 8  88272915.61146
      2609.759        2033.576  
  22544328.037 7  22544327.28546  22544334.54346 118471237.827 7  92315258.97746
      1510.170        1176.750  
  20072945.786 8  20072945.61647  20072948.92847 105484036.744 8  82195362.69847
      2928.713        2282.112  
  23636839.199 7  23636838.97545  23636845.92045 124212424.025 7  96788906.45845
      5130.963        3998.152  
 18  2 21 16 43 32.0000000  0  9G 2G12G15G20G21G24G25G29G32         
  24272745.419 7  24272745.40544  24272748.21844 127554132.921 7  99392844.10044
      1042.033         811.962  
  23096699.770 7  23096700.02045  23096703.48545 121373966.103 7  94577128.78245
       631.902         492.392  
  22487324.514 8  22487324.42346  22487328.10746 118171670.781 8  92081827.38646
      -582.925        -454.229  
  23852508.732 6  23852509.19643  23852512.56743 125345784.750 6  97672042.39043
      1431.558        1115.505  
  23742080.063 6  23742079.79943  23742084.83043 124765461.115 6  97219845.22843
      4925.372        3837.948  
  21556653.128 8  21556652.88146  21556658.46146 113280959.227 8  88270882.13346
      2609.517        2033.393  
  22544040.651 8  22544039.88546  22544047.19846 118469727.656 8  92314082.22046
      1510.208        1176.789  
  20072388.530 8  20072388.39147  20072391.69547 105481108.335 8  82193080.82147
      2928.126        2281.658  
  23635862.419 7  23635862.60745  23635869.70245 124207293.245 7  96784908.44545
      5130.640        3997.905  
 18  2 21 16 43 33.0000000  0  9G 2G12G15G20G21G24G25G29G32         
  24272547.306 6  24272546.98044  24272549.80844 127553090.912 6  99392032.14644
      1041.917         811.884  
  23096579.517 7  23096579.75545  23096583.27945 121373333.983 7  94576636.22245
       632.285         492.687  
  22487435.541 8  22487435.42346  22487439.02246 118172253.695 8  92082281.60546
      -582.939        -454.238  
  23852236.636 6  23852236.66943  23852240.20743 125344352.925 6  97670926.68043
      1432.035        1115.873  
  23741142.926 7  23741142.44143  23741147.18643 124760535.603 7  97216007.17143
      4925.631        3838.150  
  21556156.681 8  21556156.27846  21556161.89046 113278349.757 8  88268848.78146
      2609.392        2033.289  
  22543753.254 8  22543752.46246  22543759.83546 118468217.312 8  92312905.32846
      1510.431        1176.958  
  20071831.408 8  20071831.19047  20071834.50747 105478180.435 8  82190799.34247
      2927.645        2281.279  
  23634886.175 7  23634886.31245  23634893.47745 124202162.654 7  96780910.58545
      5130.496        3997.784  
 18  2 21 16 43 34.0000000  0  9G 2G12G15G20G21G24G25G29G32         
  24272349.198 6  24272348.65244  24272351.69944 127552049.192 6  99391220.41444
      1041.575         811.620  
  23096459.226 7  23096459.23945  23096463.19445 121372701.588 7  94576143.44845
       632.531         492.880  
  22487546.327 8  22487546.40446  22487549.99146 118172836.692 8  92082735.88446
      -583.038        -454.309  
  23851964.061 6  23851963.94043  23851967.13843 125342920.719 6  97669810.68343
      1432.397        1116.142  
  23740205.419 7  23740205.06443  23740210.12643 124755609.878 7  97212168.94143
      4925.832        3838.317  
  21555660.147 8  21555659.67746  21555665.32146 113275740.472 8  88266815.57446
      2609.192        2033.135  
  22543465.740 7  22543464.99146  22543472.37846 118466706.854 7  92311728.34546
      1510.515        1177.029  
  20071274.347 8  20071274.08947  20071277.40347 105475253.052 8  82188518.26447
      2927.125        2280.878  
  23633909.932 6  23633910.00945  23633917.31445 124197032.308 6  96776912.91945
      5130.224        3997.569  
 18  2 21 16 43 35.0000000  0  9G 2G12G15G20G21G24G25G29G32         
  24272150.736 6  24272150.67844  24272153.43644 127551007.691 6  99390408.85444
      1041.391         811.475  
  23096338.996 7  23096339.00245  23096342.80345 121372068.889 7  94575650.43345
       632.852         493.137  
  22487657.413 8  22487657.47346  22487660.89446 118173419.736 8  92083190.20346
      -583.068        -454.338  
  23851691.239 6  23851691.02643  23851694.77743 125341488.162 6  97668694.41643
      1432.732        1116.402  
  23739268.315 7  23739267.67043  23739272.52343 124750683.892 7  97208330.50843
      4926.117        3838.535  
  21555163.720 8  21555163.16146  21555168.82946 113273131.405 8  88264782.53546
      2608.958        2032.955  
  22543178.126 7  22543177.55246  22543184.93746 118465196.230 7  92310551.23746
      1510.706        1177.171  
  20070717.335 8  20070717.10047  20070720.48947 105472326.194 8  82186237.59647
      2926.595        2280.463  
  23632933.453 7  23632933.70945  23632941.03845 124191902.197 7  96772915.43245
      5129.993        3997.398  
 18  2 21 16 43 36.0000000  0  9G 2G12G15G20G21G24G25G29G32         
  24271952.558 7  24271952.47344  24271955.08344 127549966.400 7  99389597.45144
      1041.186         811.324  
  23096218.378 7  23096218.57145  23096222.43145 121371435.908 7  94575157.20045
       633.121         493.341  
  22487768.424 8  22487768.44246  22487771.82546 118174002.873 8  92083644.59546
      -583.183        -454.429  
  23851418.192 6  23851418.19743  23851422.05443 125340055.215 6  97667577.82743
      1433.141        1116.749  
  23738330.582 7  23738330.22043  23738334.44843 124745757.698 7  97204491.91943
      4926.296        3838.667  
  21554667.172 8  21554666.71346  21554672.36546 113270522.504 8  88262749.62646
      2608.817        2032.844  
  22542890.520 7  22542889.99946  22542897.44246 118463685.478 7  92309374.02846
      1510.817        1177.259  
  20070160.511 8  20070160.26347  20070163.61747 105469399.871 8  82183957.34547
      2926.055        2280.042  
  23631957.045 7  23631957.42045  23631964.86745 124186772.314 7  96768918.12045
      5129.770        3997.223  
 18  2 21 16 43 37.0000000  0  9G 2G12G15G20G21G24G25G29G32         
  24271754.324 7  24271754.61344  24271757.08244 127548925.376 7  99388786.25944
      1040.891         811.085  
  23096097.932 7  23096097.90245  23096101.75345 121370802.660 7  94574663.75345
       633.381         493.555  
  22487879.411 8  22487879.36646  22487882.71246 118174586.079 8  92084099.04146
      -583.242        -454.473  
  23851145.632 6  23851145.34543  23851149.42743 125338621.851 6  97666460.93943
      1433.573        1117.038  
  23737392.929 6  23737393.00943  23737397.87743 124740831.271 6  97200653.15643
      4926.544        3838.849  
  21554170.793 8  21554170.29546  21554175.96746 113267913.840 8  88260716.90146
      2608.546        2032.632  
  22542602.956 7  22542602.43246  22542609.99846 118462174.601 7  92308196.72346
      1510.939        1177.352  
  20069603.743 8  20069603.53347  20069606.83347 105466474.094 8  82181677.51947
      2925.505        2279.613  
  23630981.082 7  23630981.37345  23630988.74245 124181642.674 7  96764921.00045
      5129.518        3997.024  
 18  2 21 16 43 38.0000000  0  9G 2G12G15G20G21G24G25G29G32         
  24271556.592 7  24271556.36544  24271559.06344 127547884.630 7  99387975.28544
      1040.606         810.866  
  23095977.589 7  23095977.25945  23095981.08545 121370169.138 7  94574170.09745
       633.660         493.759  
  22487990.349 8  22487990.25546  22487993.70646 118175169.385 8  92084553.56246
      -583.356        -454.559  
  23850872.526 6  23850872.47243  23850876.36243 125337188.218 6  97665343.80343
      1433.767        1117.259  
  23736455.668 7  23736455.54143  23736460.81443 124735904.639 7  97196814.22543
      4926.735        3839.015  
  21553674.391 8  21553673.87746  21553679.59446 113265305.386 8  88258684.33946
      2608.349        2032.482  
  22542315.366 8  22542314.86646  22542322.47746 118460663.602 8  92307019.32346
      1511.060        1177.448  
  20069047.034 8  20069046.89547  20069050.16347 105463548.862 8  82179398.11747
      2924.958        2279.190  
  23630004.940 7  23630005.16345  23630012.46845 124176513.299 7  96760924.08645
      5129.243        3996.812  
 18  2 21 16 43 39.0000000  0  9G 2G12G15G20G21G24G25G29G32         
  24271359.045 6  24271358.42244  24271361.11444 127546844.123 6  99387164.49344
      1040.388         810.701  
  23095856.945 7  23095856.64245  23095860.34545 121369535.358 7  94573676.24145
       633.908         493.957  
  22488101.200 8  22488101.24246  22488104.77246 118175752.777 8  92085008.14946
      -583.434        -454.620  
  23850599.646 6  23850599.08243  23850603.84243 125335754.165 6  97664226.36743
      1434.262        1117.585  
  23735517.808 7  23735517.43543  23735523.38643 124730977.751 7  97192975.10143
      4927.016        3839.221  
  21553178.211 8  21553177.57046  21553183.27846 113262697.122 8  88256651.92546
      2608.169        2032.338  
  22542027.789 7  22542027.34046  22542034.88046 118459152.510 7  92305841.84746
      1511.138        1177.513  
  20068490.471 8  20068490.28447  20068493.58147 105460624.167 8  82177119.13347
      2924.427        2278.774  
  23629028.867 6  23629028.92644  23629036.30945 124171384.170 6  96756927.36945
      5129.006        3996.617  
 18  2 21 16 43 40.0000000  0  9G 2G12G15G20G21G24G25G29G32         
  24271161.063 7  24271160.39044  24271163.02344 127545803.842 7  99386353.88844
      1040.168         810.511  
  23095736.361 7  23095736.00345  23095739.73045 121368901.256 7  94573182.13345
       634.263         494.232  
  22488212.333 8  22488212.26346  22488215.88646 118176336.243 8  92085462.79746
      -583.504        -454.678  
  23850326.418 6  23850326.44543  23850331.05543 125334319.731 6  97663108.62043
      1434.624        1117.902  
  23734580.013 6  23734579.75943  23734585.69243 124726050.738 6  97189135.87143
      4927.076        3839.282  
  21552681.864 8  21552681.30846  21552686.95546 113260089.047 8  88254619.65946
      2607.979        2032.193  
  22541740.103 8  22541739.72346  22541747.33446 118457641.258 8  92304664.25046
      1511.333        1177.659  
  20067934.084 8  20067933.80547  20067937.15447 105457700.018 8  82174840.57547
      2923.876        2278.345  
  23628053.025 7  23628053.01144  23628060.38245 124166255.271 7  96752930.82745
      5128.784        3996.455  
 18  2 21 16 43 41.0000000  0  9G 2G12G15G20G21G24G25G29G32         
  24270963.240 7  24270962.65744  24270965.22844 127544763.854 7  99385543.51344
      1039.842         810.261  
  23095615.546 7  23095615.47045  23095618.99945 121368266.951 7  94572687.87045
       634.408         494.341  
  22488323.492 8  22488323.25146  22488326.75446 118176919.775 8  92085917.49446
      -583.565        -454.722  
  23850053.716 6  23850052.95743  23850057.63743 125332884.940 6  97661990.59843
      1434.970        1118.161  
  23733642.734 7  23733642.20043  23733648.04243 124721123.440 7  97185296.42143
      4927.439        3839.560  
  21552185.259 8  21552185.04346  21552190.72846 113257481.183 8  88252587.55346
      2607.758        2032.025  
  22541452.576 7  22541451.99546  22541459.72946 118456129.896 7  92303486.56446
      1511.417        1177.729  
  20067377.665 8  20067377.43047  20067380.77847 105454776.416 8  82172562.44247
      2923.328        2277.921  
  23627077.188 7  23627076.90644  23627084.44245 124161126.627 7  96748934.47945
      5128.516        3996.250  
 18  2 21 16 43 42.0000000  0  9G 2G12G15G20G21G24G25G29G32         
  24270765.177 6  24270764.83044  24270767.49244 127543724.113 6  99384733.33644
      1039.618         810.077  
  23095494.728 7  23095494.59945  23095498.35045 121367632.370 7  94572193.39545
       634.718         494.581  
  22488434.564 8  22488434.30646  22488437.91846 118177503.414 8  92086372.28046
      -583.692        -454.830  
  23849780.866 6  23849779.76543  23849784.32743 125331449.752 6  97660872.28843
      1435.386        1118.453  
  23732705.072 7  23732704.68443  23732710.60043 124716195.927 7  97181456.80043
      4927.622        3839.706  
  21551689.084 8  21551688.86446  21551694.51046 113254873.537 8  88250555.62546
      2607.538        2031.840  
  22541164.785 7  22541164.41346  22541172.17146 118454618.425 7  92302308.80046
      1511.524        1177.803  
  20066821.419 8  20066821.16047  20066824.52847 105451853.329 8  82170284.71447
      2922.831        2277.524  
  23626100.802 6  23626100.97944  23626108.52744 124155998.210 6  96744938.31544
      5128.303        3996.073  
 18  2 21 16 43 43.0000000  0  9G 2G12G15G20G21G24G25G29G32         
  24270567.431 6  24270566.99144  24270569.74444 127542684.627 6  99383923.34244
      1039.358         809.903  
  23095374.041 7  23095373.85845  23095377.57545 121366997.505 7  94571698.69745
       635.007         494.810  
  22488545.671 8  22488545.45446  22488549.03446 118178087.128 8  92086827.12346
      -583.751        -454.871  
  23849507.355 6  23849506.35643  23849511.19843 125330014.231 6  97659753.68243
      1435.687        1118.754  
  23731767.200 7  23731766.88043  23731773.01743 124711268.180 7  97177616.99743
      4927.863        3839.894  
  21551192.933 8  21551192.62446  21551198.30346 113252266.097 8  88248523.85046
      2607.336        2031.698  
  22540877.106 7  22540876.73746  22540884.50146 118453106.831 7  92301130.93346
      1511.656        1177.920  
  20066265.252 8  20066265.01947  20066268.40647 105448930.793 8  82168007.41347
      2922.260        2277.088  
  23625124.466 7  23625125.23244  23625132.56944 124150870.088 7  96740942.37544
      5127.974        3995.826  
 18  2 21 16 43 44.0000000  0  9G 2G12G15G20G21G24G25G29G32         
  24270369.764 6  24270369.23444  24270371.87844 127541645.351 6  99383113.51344
      1039.172         809.746  
  23095252.973 7  23095253.06245  23095256.78345 121366362.336 7  94571203.76045
       635.322         495.056  
  22488656.669 8  22488656.63746  22488660.20446 118178670.864 8  92087281.98246
      -583.748        -454.868  
  23849234.486 6  23849232.95243  23849238.34843 125328578.287 6  97658634.75643
      1436.156        1119.086  
  23730829.606 7  23730829.25543  23730835.18943 124706340.200 7  97173777.01443
      4928.097        3840.073  
  21550696.832 8  21550696.45846  21550702.13546 113249658.798 8  88246492.18746
      2607.229        2031.606  
  22540589.413 7  22540588.90646  22540596.87846 118451595.066 7  92299952.93646
      1511.850        1178.061  
  20065709.149 8  20065708.92547  20065712.32847 105446008.757 8  82165730.50247
      2921.786        2276.715  
  23624148.732 7  23624149.47144  23624156.68844 124145742.105 7  96736946.55244
      5127.913        3995.766  
 18  2 21 16 43 45.0000000  0  9G 2G12G15G20G21G24G25G29G32         
  24270172.123 6  24270171.42844  24270174.24044 127540606.364 6  99382303.90744
      1038.842         809.494  
  23095132.013 7  23095131.97745  23095135.91845 121365726.930 7  94570708.63445
       635.524         495.221  
  22488767.737 8  22488767.73346  22488771.37146 118179254.717 8  92087736.93746
      -583.911        -455.003  
  23848960.955 6  23848959.48543  23848965.36643 125327141.982 6  97657515.56343
      1436.484        1119.326  
  23729891.981 7  23729891.56843  23729897.16343 124701412.015 7  97169936.86943
      4928.287        3840.226  
  21550200.643 8  21550200.37046  21550206.07446 113247051.732 8  88244460.70846
      2606.950        2031.387  
  22540301.474 7  22540301.12546  22540309.05246 118450083.209 7  92298774.86346
      1511.903        1178.111  
  20065153.297 8  20065152.96547  20065156.39947 105443087.294 8  82163454.03647
      2921.176        2276.244  
  23623173.271 7  23623173.72144  23623180.95344 124140614.414 7  96732950.95144
      5127.546        3995.489  
 18  2 21 16 43 46.0000000  0  9G 2G12G15G20G21G24G25G29G32         
  24269974.355 7  24269973.82544  24269976.52944 127539567.641 7  99381494.51344
      1038.590         809.288  
  23095010.981 7  23095010.77945  23095014.94445 121365091.270 7  94570213.31345
       635.787         495.417  
  22488878.772 8  22488878.90846  22488882.48046 118179838.684 8  92088191.97746
      -584.024        -455.082  
  23848687.657 6  23848686.22243  23848691.96743 125325705.420 6  97656396.16243
      1436.692        1119.506  
  23728954.025 7  23728953.46543  23728959.00343 124696483.655 7  97166096.59543
      4928.448        3840.338  
  21549704.454 8  21549704.29146  21549709.91846 113244444.897 8  88242429.40946
      2606.720        2031.208  
  22540013.799 7  22540013.32546  22540021.34746 118448571.239 7  92297596.70846
      1512.026        1178.195  
  20064597.540 8  20064597.17747  20064600.58247 105440166.387 8  82161178.00447
      2920.630        2275.814  
  23622198.026 7  23622198.09144  23622205.00744 124135487.012 7  96728955.57544
      5127.257        3995.262  
 18  2 21 16 43 47.0000000  0  9G 2G12G15G20G21G24G25G29G32         
  24269777.078 7  24269775.99844  24269779.03144 127538529.126 7  99380685.28844
      1038.411         809.140  
  23094890.081 7  23094889.88245  23094893.86245 121364455.296 7  94569717.74845
       636.130         495.687  
  22488989.883 8  22488989.99746  22488993.57446 118180422.749 8  92088647.09346
      -584.114        -455.154  
  23848414.722 6  23848412.98243  23848418.47643 125324268.421 6  97655276.43243
      1437.216        1119.894  
  23728016.055 6  23728015.98243  23728021.01743 124691555.070 6  97162256.14243
      4928.696        3840.543  
  21549208.547 8  21549208.28546  21549213.94546 113241838.264 8  88240398.26546
      2606.532        2031.068  
  22539726.163 7  22539725.56846  22539733.62746 118447059.130 7  92296418.44446
      1512.179        1178.319  
  20064041.865 8  20064041.39347  20064044.84047 105437246.010 8  82158902.38647
      2920.111        2275.412  
  23621222.189 7  23621222.48344  23621229.29844 124130359.793 7  96724960.34844
      5127.127        3995.153  
 18  2 21 16 43 48.0000000  0  9G 2G12G15G20G21G24G25G29G32         
  24269579.681 7  24269578.68444  24269581.38144 127537490.968 7  99379876.33444
      1037.979         808.819  
  23094768.935 7  23094768.72945  23094772.77345 121363819.106 7  94569222.01345
       636.298         495.821  
  22489100.943 8  22489101.20346  22489104.80646 118181006.894 8  92089102.26946
      -584.185        -455.205  
  23848141.366 6  23848139.80243  23848145.21643 125322831.092 6  97654156.42243
      1437.495        1120.149  
  23727077.812 7  23727078.04943  23727083.29643 124686626.272 7  97158415.52243
      4928.905        3840.704  
  21548712.409 8  21548712.36446  21548717.97946 113239231.872 8  88238367.31246
      2606.272        2030.857  
  22539438.428 7  22539437.72146  22539445.85846 118445546.931 7  92295240.10746
      1512.245        1178.374  
  20063486.177 8  20063485.75347  20063489.20147 105434326.195 8  82156627.20547
      2919.535        2274.963  
  23620246.530 7  23620246.95844  23620253.67744 124125232.899 7  96720965.36444
      5126.733        3994.863  
 18  2 21 16 43 49.0000000  0  9G 2G12G15G20G21G24G25G29G32         
  24269382.046 6  24269381.08144  24269383.82244 127536453.008 6  99379067.53344
      1037.861         808.724  
  23094647.833 7  23094647.67445  23094651.58745 121363182.653 7  94568726.07545
       636.585         496.040  
  22489212.104 8  22489212.38446  22489216.07046 118181591.103 8  92089557.49946
      -584.240        -455.257  
  23847867.095 6  23847865.78943  23847871.77743 125321393.319 6  97653036.08543
      1437.994        1120.500  
  23726140.002 7  23726139.85743  23726145.92343 124681697.249 7  97154574.73143
      4929.135        3840.877  
  21548216.426 8  21548216.44946  21548222.02646 113236625.671 8  88236336.50746
      2606.105        2030.730  
  22539150.674 7  22539149.83746  22539158.02846 118444034.627 7  92294061.69146
      1512.356        1178.455  
  20062930.678 8  20062930.21647  20062933.72047 105431406.926 8  82154352.45247
      2918.996        2274.539  
  23619270.915 7  23619271.31244  23619278.20444 124120106.240 7  96716970.57244
      5126.540        3994.696  
 18  2 21 16 43 50.0000000  0  9G 2G12G15G20G21G24G25G29G32         
  24269184.334 6  24269183.67044  24269186.30044 127535415.411 6  99378259.01244
      1037.415         808.381  
  23094526.752 7  23094526.64245  23094530.43845 121362545.972 7  94568229.96345
       636.794         496.198  
  22489323.288 8  22489323.49346  22489327.22046 118182175.484 8  92090012.86346
      -584.469        -455.432  
  23847594.054 6  23847592.38443  23847597.89843 125319955.338 6  97651915.58643
      1438.085        1120.581  
  23725202.083 6  23725201.11843  23725207.91843 124676768.103 6  97150733.84243
      4929.207        3840.937  
  21547720.504 8  21547720.61846  21547726.13246 113234019.755 8  88234305.92746
      2605.774        2030.468  
  22538862.876 7  22538862.05946  22538870.22046 118442522.256 7  92292883.21746
      1512.404        1178.502  
  20062375.440 8  20062374.81847  20062378.36347 105428488.265 8  82152078.17247
      2918.356        2274.043  
  23618295.488 7  23618295.87344  23618302.67044 124114979.872 7  96712976.00244
      5126.223        3994.458  
 18  2 21 16 43 51.0000000  0  9G 2G12G15G20G21G24G25G29G32         
  24268987.064 6  24268986.30244  24268988.92644 127534377.957 6  99377450.60144
      1037.382         808.357  
  23094405.741 7  23094405.24345  23094409.20545 121361908.926 7  94567733.56245
       637.229         496.545  
  22489434.546 8  22489434.71046  22489438.48646 118182759.861 8  92090468.22046
      -584.375        -455.352  
  23847320.125 6  23847318.49843  23847323.97743 125318516.874 6  97650794.69743
      1438.704        1121.083  
  23724264.183 6  23724263.15743  23724269.88143 124671838.628 6  97146892.69743
      4929.640        3841.274  
  21547224.653 8  21547224.73846  21547230.38046 113231413.962 8  88232275.43846
      2605.731        2030.443  
  22538574.955 7  22538574.23946  22538582.31846 118441009.699 7  92291704.59946
      1512.650        1178.691  
  20061820.039 8  20061819.50347  20061822.99347 105425570.059 8  82149804.24747
      2917.980        2273.747  
  23617319.782 7  23617320.37544  23617327.13744 124109853.706 7  96708981.58844
      5126.065        3994.338  
 18  2 21 16 43 52.0000000  0  9G 2G12G15G20G21G24G25G29G32         
  24268789.600 6  24268788.95744  24268791.65144 127533340.741 6  99376642.37944
      1037.098         808.127  
  23094284.379 7  23094284.06045  23094288.07645 121361271.613 7  94567236.95145
       637.446         496.715  
  22489545.774 8  22489545.96246  22489549.71746 118183344.284 8  92090923.61246
      -584.446        -455.411  
  23847046.570 6  23847044.95343  23847049.41243 125317078.003 6  97649673.49443
      1439.075        1121.360  
  23723325.908 7  23723325.12243  23723331.80543 124666908.889 7  97143051.33143
      4929.871        3841.476  
  21546728.893 8  21546728.87046  21546734.53446 113228808.309 8  88230245.05746
      2605.583        2030.327  
  22538287.262 8  22538286.38846  22538294.38646 118439496.961 8  92290525.84046
      1512.828        1178.829  
  20061264.777 8  20061264.30447  20061267.73447 105422652.390 8  82147530.73947
      2917.400        2273.299  
  23616344.098 7  23616344.94844  23616351.82744 124104727.740 7  96704987.32744
      5125.865        3994.184  
 18  2 21 16 43 53.0000000  0  9G 2G12G15G20G21G24G25G29G32         
  24268592.080 7  24268591.33744  24268594.44544 127532303.749 7  99375834.33644
      1036.880         807.953  
  23094162.888 7  23094162.72245  23094166.63845 121360633.976 7  94566740.09545
       637.799         496.978  
  22489656.851 8  22489657.16046  22489661.02146 118183928.763 8  92091379.05346
      -584.508        -455.465  
  23846772.740 6  23846770.83543  23846775.10543 125315638.749 6  97648552.00443
      1439.446        1121.634  
  23722387.816 6  23722387.18143  23722393.65843 124661978.960 6  97139209.81643
      4930.024        3841.589  
  21546233.057 8  21546233.04046  21546238.74246 113226202.854 8  88228214.83246
      2605.357        2030.148  
  22537999.542 7  22537998.53346  22538006.47946 118437984.083 7  92289346.97746
      1512.947        1178.916  
  20060709.705 8  20060709.16747  20060712.58847 105419735.226 8  82145257.62847
      2916.910        2272.914  
  23615368.453 7  23615369.49844  23615376.52344 124099601.983 7  96700993.23744
      5125.653        3994.004  
 18  2 21 16 43 54.0000000  0  9G 2G12G15G20G21G24G25G29G32         
  24268394.892 6  24268394.09044  24268397.14544 127531267.002 6  99375026.48644
      1036.624         807.754  
  23094041.407 7  23094041.25745  23094045.25945 121359996.086 7  94566243.03445
       638.016         497.164  
  22489768.003 8  22489768.42246  22489772.26446 118184513.365 8  92091834.58246
      -584.664        -455.572  
  23846498.700 6  23846496.81943  23846501.28243 125314199.119 6  97647430.20843
      1439.818        1121.949  
  23721449.920 7  23721448.85843  23721455.52043 124657048.835 7  97135368.17043
      4930.223        3841.711  
  21545737.319 8  21545737.27146  21545742.98946 113223597.616 8  88226184.77846
      2605.128        2029.968  
  22537711.559 7  22537710.65146  22537718.59246 118436471.077 7  92288168.00846
      1513.071        1179.022  
  20060154.554 8  20060154.10147  20060157.60547 105416818.630 8  82142984.95747
      2916.313        2272.450  
  23614392.848 7  23614394.06644  23614401.22044 124094476.481 7  96696999.34244
      5125.374        3993.797  
 18  2 21 16 43 55.0000000  0  9G 2G12G15G20G21G24G25G29G32         
  24268197.539 7  24268197.00144  24268199.79744 127530230.543 7  99374218.86044
      1036.315         807.512  
  23093920.078 7  23093919.87645  23093923.65645 121359357.942 7  94565745.77045
       638.271         497.366  
  22489879.256 8  22489879.72946  22489883.50246 118185098.050 8  92092290.17646
      -584.726        -455.627  
  23846225.168 6  23846223.23643  23846227.33043 125312759.169 6  97646308.15643
      1440.109        1122.179  
  23720511.436 7  23720510.68143  23720517.52443 124652118.439 7  97131526.30443
      4930.531        3841.977  
  21545241.517 8  21545241.60746  21545247.27446 113220992.581 8  88224154.88046
      2604.934        2029.820  
  22537423.643 7  22537422.78946  22537430.59146 118434957.999 7  92286988.98546
      1513.114        1179.050  
  20059599.540 8  20059599.13047  20059602.69147 105413902.579 8  82140712.71247
      2915.777        2272.031  
  23613417.879 7  23613418.81244  23613425.84244 124089351.274 7  96693005.67544
      5125.059        3993.552  
 18  2 21 16 43 56.0000000  0  9G 2G12G15G20G21G24G25G29G32         
  24268000.318 6  24267999.69744  24268002.73344 127529194.299 6  99373411.39344
      1036.137         807.388  
  23093798.767 7  23093798.27745  23093802.27545 121358719.458 7  94565248.25545
       638.654         497.640  
  22489990.553 8  22489990.97046  22489994.74946 118185682.739 8  92092745.77746
      -584.691        -455.604  
  23845950.835 6  23845949.54943  23845953.23543 125311318.790 6  97645185.77643
      1440.594        1122.544  
  23719573.187 7  23719572.67443  23719579.16743 124647187.837 7  97127684.28243
      4930.706        3842.099  
  21544745.940 8  21544745.94646  21544751.58346 113218387.686 8  88222125.09346
      2604.824        2029.732  
  22537135.682 7  22537134.80546  22537142.60046 118433444.710 7  92285809.79846
      1513.394        1179.268  
  20059044.721 8  20059044.30847  20059047.86147 105410987.013 8  82138440.84247
      2915.324        2271.683  
  23612442.612 7  23612443.55744  23612450.55144 124084226.220 7  96689012.12644
      5124.976        3993.491  
 18  2 21 16 43 57.0000000  0  9G 2G12G15G20G21G24G25G29G32         
  24267803.053 6  24267802.44644  24267805.45344 127528158.349 6  99372604.15844
      1035.802         807.119  
  23093677.043 7  23093676.87145  23093680.95945 121358080.777 7  94564750.58145
       638.780         497.753  
  22490101.867 8  22490102.28546  22490105.97446 118186267.619 8  92093201.52746
      -584.974        -455.825  
  23845677.078 6  23845675.52543  23845679.15843 125309878.103 6  97644063.17143
      1440.841        1122.718  
  23718634.705 7  23718634.46543  23718640.97343 124642257.047 7  97123842.10643
      4930.883        3842.253  
  21544250.119 8  21544250.30646  21544255.96046 113215783.056 8  88220095.51346
      2604.497        2029.477  
  22536847.870 7  22536846.84146  22536854.58946 118431931.389 7  92284630.59046
      1513.336        1179.220  
  20058490.071 8  20058489.58347  20058493.18147 105408072.073 8  82136169.46147
      2914.627        2271.136  
  23611467.656 7  23611468.33844  23611475.50744 124079101.500 7  96685018.84144
      5124.554        3993.153  
 18  2 21 16 43 58.0000000  0  9G 2G12G15G20G21G24G25G29G32         
  24267605.886 6  24267605.59044  24267608.25144 127527122.653 6  99371797.11544
      1035.569         806.947  
  23093555.369 7  23093555.35745  23093559.33645 121357441.820 7  94564252.69045
       639.094         498.000  
  22490213.004 8  22490213.57246  22490217.29146 118186852.520 8  92093657.29346
      -584.913        -455.774  
  23845402.897 6  23845401.89543  23845405.06943 125308437.036 6  97642940.26643
      1441.258        1123.055  
  23717696.215 7  23717696.21143  23717702.54143 124637325.998 7  97119999.73743
      4931.179        3842.465  
  21543754.296 8  21543754.70846  21543760.35146 113213178.637 8  88218066.09746
      2604.314        2029.333  
  22536560.041 7  22536558.82046  22536566.70546 118430417.922 7  92283451.26646
      1513.540        1179.381  
  20057935.436 8  20057935.03447  20057938.59447 105405157.653 8  82133898.48447
      2914.160        2270.775  
  23610492.682 6  23610493.09944  23610500.24244 124073977.017 6  96681025.74244
      5124.364        3993.006  
 18  2 21 16 43 59.0000000  0  9G 2G12G15G20G21G24G25G29G32         
  24267409.217 7  24267408.45544  24267411.12944 127526087.248 7  99370990.29544
      1035.261         806.708  
  23093433.868 7  23093433.89245  23093437.71445 121356802.603 7  94563754.59445
       639.347         498.198  
  22490324.450 8  22490324.88946  22490328.61246 118187437.625 8  92094113.22246
      -585.207        -456.011  
  23845128.084 6  23845126.96243  23845131.22443 125306995.716 6  97641817.16043
      1441.446        1123.205  
  23716757.776 7  23716757.69643  23716763.94243 124632394.866 7  97116157.30643
      4931.173        3842.462  
  21543258.929 8  21543259.13546  21543264.82846 113210574.464 8  88216036.87346
      2604.050        2029.129  
  22536272.192 7  22536270.76846  22536278.60546 118428904.332 7  92282271.84046
      1513.653        1179.477  
  20057381.100 8  20057380.59347  20057384.12047 105402243.833 8  82131627.97647
      2913.521        2270.273  
  23609517.559 7  23609518.12944  23609525.17844 124068852.777 7  96677032.83244
      5124.119        3992.815  
 18  2 21 16 44  0.0000000  0  9G 2G12G15G20G21G24G25G29G32         
  24267211.994 7  24267211.55744  24267214.25644 127525051.998 7  99370183.60944
      1035.171         806.619  
  23093312.206 7  23093312.02845  23093316.20545 121356163.042 7  94563256.22945
       639.733         498.500  
  22490435.803 8  22490436.22646  22490439.99046 118188022.682 8  92094569.10746
      -585.032        -455.862  
  23844854.021 6  23844852.10743  23844856.87343 125305553.920 6  97640693.69743
      1442.034        1123.642  
  23715819.481 7  23715819.19743  23715825.61643 124627463.406 7  97112314.63443
      4931.625        3842.793  
  21542763.521 8  21542763.57046  21542769.30246 113207970.431 8  88214007.75446
      2603.964        2029.066  
  22535984.161 7  22535982.78146  22535990.52946 118427390.601 7  92281092.30946
      1513.800        1179.584  
  20056826.671 8  20056826.31647  20056829.65247 105399330.482 8  82129357.83247
      2913.116        2269.962  
  23608542.490 7  23608543.05444  23608550.02244 124063728.763 7  96673040.09744
      5123.900        3992.647  
 18  2 21 16 44  1.0000000  0  9G 2G12G15G20G21G24G25G29G32         
  24267015.399 6  24267014.50144  24267017.18944 127524017.047 6  99369377.15644
      1034.803         806.338  
  23093190.541 7  23093190.15545  23093194.49845 121355523.250 7  94562757.68645
       639.908         498.632  
  22490547.070 8  22490547.57846  22490551.33446 118188607.848 8  92095025.07846
      -585.221        -456.014  
  23844579.085 6  23844577.70143  23844582.36743 125304111.720 6  97639569.91143
      1442.403        1123.948  
  23714881.152 7  23714880.52043  23714887.20443 124622531.736 7  97108471.77543
      4931.774        3842.952  
  21542268.079 8  21542268.11946  21542273.83546 113205366.643 8  88211978.82846
      2603.664        2028.830  
  22535695.745 7  22535694.82246  22535702.44746 118425876.740 7  92279912.67446
      1513.926        1179.685  
  20056272.417 8  20056272.08747  20056275.36647 105396417.677 8  82127088.11547
      2912.533        2269.505  
  23607567.638 7  23607568.08944  23607574.95944 124058605.027 7  96669047.57444
      5123.598        3992.417  
 18  2 21 16 44  2.0000000  0  9G 2G12G15G20G21G24G25G29G32         
  24266818.475 6  24266817.57644  24266820.32244 127522982.298 6  99368570.86244
      1034.646         806.213  
  23093068.816 7  23093068.24945  23093072.65545 121354883.043 7  94562258.82645
       640.414         499.019  
  22490658.517 8  22490658.97546  22490662.73346 118189193.083 8  92095481.10746
      -585.269        -456.059  
  23844304.778 6  23844303.17843  23844307.97743 125302669.221 6  97638445.88843
      1442.649        1124.142  
  23713942.113 6  23713942.11243  23713948.39343 124617599.859 6  97104628.74843
      4931.981        3843.112  
  21541772.629 8  21541772.67346  21541778.37846 113202763.013 8  88209950.02746
      2603.551        2028.737  
  22535407.496 7  22535406.86646  22535414.28746 118424362.688 7  92278732.89246
      1514.148        1179.856  
  20055718.145 8  20055717.89647  20055721.20847 105393505.368 8  82124818.78347
      2912.061        2269.138  
  23606592.551 7  23606593.00444  23606599.93944 124053481.413 7  96665055.14844
      5123.552        3992.378  
 18  2 21 16 44  3.0000000  0  9G 2G12G15G20G21G24G25G29G32         
  24266621.901 7  24266620.79044  24266623.37644 127521947.838 7  99367764.78844
      1034.317         805.965  
  23092946.525 7  23092946.11545  23092950.75245 121354242.660 7  94561759.83245
       640.472         499.060  
  22490769.904 8  22490770.36246  22490774.11746 118189778.489 8  92095937.26746
      -585.493        -456.224  
  23844029.796 6  23844028.37243  23844032.72543 125301226.430 6  97637321.61843
      1442.936        1124.392  
  23713003.667 7  23713003.19943  23713010.04043 124612667.860 7  97100785.64143
      4932.060        3843.146  
  21541277.389 8  21541277.31446  21541283.00246 113200159.658 8  88207921.43646
      2603.218        2028.487  
  22535119.368 7  22535118.84646  22535126.17546 118422848.533 7  92277553.02546
      1514.206        1179.910  
  20055164.049 8  20055163.89447  20055167.12947 105390593.671 8  82122549.92447
      2911.391        2268.623  
  23605617.914 7  23605618.10544  23605625.05144 124048358.104 7  96661062.96044
      5123.157        3992.069  
 18  2 21 16 44  4.0000000  0  9G 2G12G15G20G21G24G25G29G32         
  24266424.619 7  24266424.26544  24266426.72344 127520913.662 7  99366958.93844
      1034.033         805.737  
  23092824.575 7  23092824.11745  23092829.00745 121353601.970 7  94561260.60045
       640.842         499.352  
  22490881.288 8  22490881.65546  22490885.62146 118190363.938 8  92096393.47046
      -585.469        -456.225  
  23843755.281 6  23843754.19543  23843758.28343 125299783.197 6  97636197.03243
      1443.454        1124.745  
  23712064.889 6  23712064.55643  23712071.35243 124607735.617 6  97096942.34643
      4932.363        3843.389  
  21540781.963 8  21540781.91546  21540787.60246 113197556.446 8  88205892.96046
      2603.140        2028.419  
  22534831.228 7  22534830.72146  22534837.98946 118421334.247 7  92276373.05946
      1514.351        1180.015  
  20054610.073 8  20054609.96047  20054613.10547 105387682.477 8  82120281.46147
      2910.942        2268.264  
  23604642.923 7  23604643.25744  23604650.08044 124043235.066 7  96657070.98244
      5122.903        3991.873  
 18  2 21 16 44  5.0000000  0  9G 2G12G15G20G21G24G25G29G32         
  24266228.252 7  24266227.77744  24266229.84744 127519879.738 7  99366153.28544
      1033.798         805.554  
  23092702.446 7  23092702.03845  23092707.15445 121352961.128 7  94560761.24545
       640.919         499.416  
  22490992.605 8  22490992.89446  22490997.01646 118190949.423 8  92096849.69146
      -585.504        -456.230  
  23843480.352 6  23843479.56143  23843484.24043 125298339.548 6  97635072.13143
      1443.857        1125.058  
  23711126.609 6  23711126.10743  23711132.78343 124602803.110 6  97093098.82543
      4932.640        3843.635  
  21540286.570 8  21540286.53846  21540292.28246 113194953.494 8  88203864.68346
      2602.822        2028.176  
  22534543.167 7  22534542.55846  22534549.75246 118419819.983 7  92275193.11446
      1514.252        1179.934  
  20054056.309 8  20054056.11847  20054059.25747 105384771.865 8  82118013.45247
      2910.320        2267.783  
  23603667.850 7  23603668.54144  23603675.29844 124038112.383 7  96653079.27644
      5122.505        3991.570  
 18  2 21 16 44  6.0000000  0  9G 2G12G15G20G21G24G25G29G32         
  24266031.582 6  24266031.19544  24266033.00144 127518846.104 6  99365347.85944
      1033.489         805.313  
  23092580.687 7  23092579.93045  23092585.15145 121352320.001 7  94560261.66545
       641.269         499.692  
  22491104.146 8  22491104.33046  22491108.47846 118191535.046 8  92097306.01946
      -585.692        -456.383  
  23843205.508 6  23843204.45043  23843209.43743 125296895.633 6  97633946.99743
      1444.048        1125.251  
  23710188.468 6  23710187.37743  23710194.23943 124597870.420 6  97089255.15943
      4932.781        3843.738  
  21539791.299 8  21539791.24046  21539797.01046 113192350.747 8  88201836.56746
      2602.644        2028.037  
  22534255.057 7  22534254.40046  22534261.54346 118418305.538 7  92274013.02346
      1514.536        1180.163  
  20053502.448 8  20053502.40647  20053505.45047 105381861.790 8  82115745.86247
      2909.808        2267.381  
  23602693.103 7  23602693.77944  23602700.28044 124032989.854 7  96649087.69444
      5122.453        3991.519  
 18  2 21 16 44  7.0000000  0  9G 2G12G15G20G21G24G25G29G32         
  24265834.774 7  24265834.44844  24265836.33944 127517812.780 7  99364542.67144
      1033.170         805.069  
  23092458.442 7  23092457.96245  23092463.15845 121351678.630 7  94559761.89645
       641.492         499.864  
  22491215.619 8  22491215.73646  22491219.95446 118192120.809 8  92097762.45746
      -585.833        -456.492  
  23842930.812 6  23842929.18043  23842934.67143 125295451.329 6  97632821.55643
      1444.499        1125.594  
  23709250.230 6  23709248.61643  23709255.30043 124592937.574 6  97085411.38643
      4932.923        3843.826  
  21539296.104 8  21539296.03646  21539301.78346 113189748.268 8  88199808.66746
      2602.345        2027.791  
  22533966.869 7  22533966.16146  22533973.24646 118416791.019 7  92272832.88146
      1514.557        1180.168  
  20052948.778 8  20052948.71747  20052951.75347 105378952.321 8  82113478.74047
      2909.165        2266.887  
  23601718.349 7  23601718.91744  23601725.58044 124027867.684 7  96645096.40244
      5121.990        3991.147  
 18  2 21 16 44  8.0000000  0  9G 2G12G15G20G21G24G25G29G32         
  24265637.667 6  24265637.94544  24265639.81044 127516779.712 6  99363737.69544
      1032.938         804.870  
  23092336.335 7  23092335.86245  23092340.99045 121351036.921 7  94559261.86445
       641.879         500.164  
  22491326.945 8  22491327.22446  22491331.52846 118192706.704 8  92098218.99746
      -585.961        -456.591  
  23842655.947 6  23842653.79443  23842660.30643 125294006.805 6  97631695.97343
      1444.633        1125.655  
  23708311.404 7  23708309.72043  23708316.39943 124588004.542 7  97081567.46143
      4933.125        3844.001  
  21538800.774 8  21538800.80346  21538806.57946 113187145.986 8  88197780.91746
      2602.184        2027.675  
  22533678.650 8  22533677.90446  22533685.03646 118415276.228 8  92271652.53046
      1514.925        1180.456  
  20052395.276 8  20052395.13947  20052398.19547 105376043.348 8  82111212.00847
      2908.725        2266.538  
  23600743.870 7  23600744.09144  23600750.84044 124022745.626 7  96641105.19144
      5122.001        3991.171  
 18  2 21 16 44  9.0000000  0  9G 2G12G15G20G21G24G25G29G32         
  24265441.143 7  24265441.50244  24265443.39844 127515746.893 7  99362932.90444
      1032.694         804.698  
  23092214.205 7  23092213.69445  23092218.82245 121350395.001 7  94558761.66745
       642.025         500.279  
  22491438.455 7  22491438.60446  22491443.17246 118193292.587 7  92098675.52646
      -585.877        -456.524  
  23842381.543 6  23842378.56043  23842385.32143 125292561.729 6  97630569.92443
      1445.351        1126.281  
  23707372.687 7  23707371.07243  23707377.47744 124583071.239 7  97077723.33844
      4933.438        3844.223  
  21538305.517 8  21538305.66146  21538311.38246 113184543.913 8  88195753.33046
      2601.968        2027.505  
  22533390.408 8  22533389.61946  22533396.79646 118413761.484 8  92270472.21046
      1514.721        1180.304  
  20051841.812 8  20051841.69947  20051844.70747 105373134.937 8  82108945.71447
      2908.129        2266.075  
  23599769.561 7  23599769.47444  23599776.34144 124017623.910 7  96637114.24744
      5121.545        3990.810  
 18  2 21 16 44 10.0000000  0  9G 2G12G15G20G21G24G25G29G32         
  24265244.734 7  24265245.04844  24265247.29744 127514714.278 7  99362128.26544
      1032.514         804.564  
  23092092.116 7  23092091.53845  23092096.63145 121349752.837 7  94558261.27845
       642.286         500.485  
  22491550.265 8  22491550.11446  22491554.63946 118193878.519 8  92099132.09346
      -585.957        -456.586  
  23842106.345 6  23842103.85143  23842110.50643 125291116.312 6  97629443.62243
      1445.589        1126.428  
  23706433.781 7  23706432.66243  23706438.98744 124578137.691 7  97073879.01044
      4933.672        3844.430  
  21537810.399 8  21537810.48246  21537816.29046 113181942.014 8  88193725.87146
      2601.813        2027.395  
  22533102.154 8  22533101.25246  22533108.59246 118412246.618 8  92269291.79146
      1514.927        1180.469  
  20051288.493 8  20051288.38947  20051291.37947 105370227.053 8  82106679.82947
      2907.620        2265.680  
  23598794.840 7  23598794.98544  23598801.77544 124012502.494 7  96633123.52744
      5121.266        3990.608  
 18  2 21 16 44 11.0000000  0  9G 2G12G15G20G21G24G25G29G32         
  24265047.909 7  24265048.63344  24265050.87944 127513681.951 7  99361323.85344
      1032.181         804.298  
  23091969.849 7  23091969.27545  23091974.45245 121349110.414 7  94557760.68245
       642.552         500.699  
  22491662.034 8  22491661.62346  22491666.21046 118194464.586 8  92099588.76846
      -586.135        -456.730  
  23841831.098 6  23841828.74743  23841835.66843 125289670.533 6  97628317.05043
      1445.959        1126.706  
  23705495.064 7  23705493.95643  23705500.12944 124573203.933 7  97070034.52244
      4933.862        3844.569  
  21537315.434 8  21537315.41846  21537321.24646 113179340.343 8  88191698.59546
      2601.556        2027.184  
  22532813.764 8  22532812.98146  22532820.32046 118410731.621 8  92268111.27246
      1515.062        1180.569  
  20050735.244 8  20050735.15647  20050738.13647 105367319.737 8  82104414.38747
      2907.033        2265.219  
  23597820.396 7  23597820.41944  23597827.28944 124007381.314 7  96629133.00444
      5121.063        3990.426  
 18  2 21 16 44 12.0000000  0  9G 2G12G15G20G21G24G25G29G32         
  24264851.840 7  24264852.30544  24264854.50844 127512649.907 7  99360519.65844
      1031.903         804.085  
  23091847.288 7  23091846.97445  23091851.97445 121348467.649 7  94557259.82545
       642.937         500.987  
  22491773.484 8  22491773.22446  22491777.79446 118195050.747 8  92100045.51846
      -586.208        -456.787  
  23841556.121 6  23841553.54643  23841560.35143 125288224.419 6  97627190.21543
      1446.282        1126.967  
  23704556.179 7  23704555.02644  23704560.76944 124568269.984 7  97066189.89744
      4934.044        3844.693  
  21536820.392 8  21536820.45946  21536826.20446 113176738.904 8  88189671.49946
      2601.323        2027.006  
  22532525.292 8  22532524.72746  22532531.98846 118409216.472 8  92266930.63846
      1515.225        1180.691  
  20050182.075 8  20050182.06747  20050184.98747 105364412.955 8  82102149.36147
      2906.515        2264.819  
  23596846.184 7  23596846.07744  23596852.74144 124002260.322 7  96625142.62344
      5120.898        3990.310  
 18  2 21 16 44 13.0000000  0  9G 2G12G15G20G21G24G25G29G32         
  24264655.764 7  24264656.02844  24264658.31244 127511618.124 7  99359715.66844
      1031.653         803.889  
  23091725.023 7  23091724.42645  23091729.62045 121347824.668 7  94556758.80445
       643.088         501.103  
  22491885.099 8  22491884.86546  22491889.21646 118195637.008 8  92100502.34346
      -586.310        -456.862  
  23841280.031 6  23841278.33143  23841284.95243 125286777.880 6  97626063.05443
      1446.752        1127.324  
  23703617.683 7  23703616.28544  23703621.69044 124563335.861 7  97062345.13144
      4934.211        3844.837  
  21536325.468 8  21536325.45246  21536331.20846 113174137.715 8  88187644.59746
      2601.064        2026.805  
  22532237.137 7  22532236.35246  22532243.68046 118407701.236 7  92265749.93146
      1515.280        1180.743  
  20049629.126 8  20049628.97947  20049631.94447 105361506.721 8  82099884.76447
      2905.960        2264.382  
  23595871.484 7  23595871.44844  23595878.30944 123997139.642 7  96621152.48744
      5120.523        3990.013  
 18  2 21 16 44 14.0000000  0  9G 2G12G15G20G21G24G25G29G32         
  24264459.503 7  24264459.60444  24264461.82444 127510586.589 7  99358911.87744
      1031.411         803.690  
  23091602.715 7  23091602.06545  23091607.25345 121347181.413 7  94556257.56645
       643.392         501.346  
  22491996.658 8  22491996.42946  22492000.81646 118196223.322 8  92100959.20846
      -586.340        -456.885  
  23841004.733 6  23841002.87343  23841009.69043 125285331.060 6  97624935.66543
      1446.961        1127.502  
  23702678.501 7  23702677.41544  23702683.04444 124558401.478 7  97058500.16344
      4934.511        3845.069  
  21535830.620 8  21535830.46946  21535836.33746 113171536.735 8  88185617.86146
      2600.876        2026.653  
  22531948.866 8  22531947.97646  22531955.32646 118406185.878 8  92264569.13246
      1515.419        1180.845  
  20049076.195 8  20049075.98747  20049078.98647 105358601.027 8  82097620.58947
      2905.423        2263.964  
  23594896.745 7  23594896.94144  23594904.03544 123992019.213 7  96617162.54544
      5120.304        3989.845  
 18  2 21 16 44 15.0000000  0  9G 2G12G15G20G21G24G25G29G32         
  24264263.175 6  24264263.20344  24264265.69844 127509555.303 6  99358108.27644
      1031.161         803.506  
  23091479.891 7  23091479.69245  23091484.87445 121346537.900 7  94555756.12545
       643.641         501.542  
  22492108.194 8  22492108.05846  22492112.50646 118196809.728 8  92101416.14846
      -586.452        -456.979  
  23840729.062 6  23840727.09143  23840734.54543 125283883.832 6  97623807.96843
      1447.431        1127.852  
  23701739.552 7  23701738.79844  23701744.07244 124553466.903 7  97054655.04044
      4934.671        3845.201  
  21535335.561 8  21535335.52746  21535341.43146 113168935.943 8  88183591.27046
      2600.697        2026.517  
  22531660.461 7  22531659.56546  22531666.98446 118404670.391 7  92263388.23046
      1515.550        1180.952  
  20048523.372 8  20048523.17547  20048526.14747 105355695.865 8  82095356.82647
      2904.897        2263.557  
  23593922.391 6  23593922.67844  23593929.66144 123986899.032 6  96613172.79744
      5120.057        3989.651  
 18  2 21 16 44 16.0000000  0  9G 2G12G15G20G21G24G25G29G32         
  24264066.997 7  24264067.02544  24264069.50244 127508524.250 7  99357304.86644
      1030.936         803.315  
  23091357.593 7  23091357.28845  23091362.42445 121345894.060 7  94555254.43345
       644.004         501.818  
  22492219.936 8  22492219.61646  22492224.10446 118197396.169 8  92101873.11346
      -586.459        -456.977  
  23840453.936 6  23840451.67643  23840458.86943 125282436.177 6  97622679.91443
      1447.868        1128.232  
  23700800.521 7  23700799.79744  23700805.16544 124548532.058 7  97050809.70144
      4934.981        3845.447  
  21534840.753 8  21534840.63546  21534846.47646 113166335.323 8  88181564.81246
      2600.534        2026.391  
  22531371.914 8  22531371.21946  22531378.53846 118403154.738 8  92262207.20146
      1515.737        1181.093  
  20047970.599 8  20047970.44047  20047973.41647 105352791.205 8  82093093.45647
      2904.408        2263.174  
  23592948.368 7  23592948.45744  23592955.51344 123981779.077 7  96609183.22244
      5119.841        3989.488  
 18  2 21 16 44 17.0000000  0  9G 2G12G15G20G21G24G25G29G32         
  24263870.830 6  24263870.91844  24263873.79044 127507493.465 6  99356501.65944
      1030.652         803.105  
  23091234.954 7  23091234.80245  23091239.83645 121345249.984 7  94554752.56345
       644.193         501.959  
  22492331.531 8  22492331.18346  22492335.58346 118197982.760 8  92102330.19646
      -586.666        -457.142  
  23840178.779 6  23840176.05543  23840183.48843 125280988.276 6  97621551.66543
      1448.024        1128.346  
  23699861.433 7  23699860.51544  23699866.01244 124543597.074 7  97046964.26844
      4935.052        3845.480  
  21534345.915 8  21534345.75646  21534351.66846 113163734.970 8  88179538.56346
      2600.220        2026.145  
  22531083.304 8  22531082.75346  22531090.11646 118401639.017 8  92261026.12546
      1515.754        1181.100  
  20047417.973 8  20047417.77347  20047420.78347 105349887.164 8  82090830.56747
      2903.731        2262.649  
  23591974.077 7  23591974.09145  23591981.42345 123976659.379 7  96605193.84945
      5119.569        3989.273  
 18  2 21 16 44 18.0000000  0  9G 2G12G15G20G21G24G25G29G32         
  24263674.612 7  24263674.79044  24263677.51544 127506462.948 7  99355698.65244
      1030.382         802.907  
  23091112.233 7  23091112.11045  23091117.20445 121344605.626 7  94554250.46145
       644.500         502.218  
  22492443.100 8  22492442.79346  22492447.27546 118198569.391 8  92102787.31046
      -586.651        -457.129  
  23839902.363 6  23839901.07243  23839908.40843 125279539.951 6  97620423.10043
      1448.537        1128.723  
  23698922.123 7  23698921.33344  23698926.95644 124538661.845 7  97043118.63744
      4935.351        3845.730  
  21533851.144 8  21533850.91046  21533856.86946 113161134.772 8  88177512.43646
      2600.120        2026.066  
  22530794.889 7  22530794.30446  22530801.66046 118400123.097 7  92259844.88846
      1516.019        1181.316  
  20046865.499 8  20046865.18147  20046868.24447 105346983.593 8  82088568.04347
      2903.336        2262.341  
  23590999.861 7  23590999.86545  23591007.05845 123971539.878 7  96601204.62745
      5119.403        3989.146  
 18  2 21 16 44 19.0000000  0  9G 2G12G15G20G21G24G25G29G32         
  24263478.639 7  24263478.72144  24263481.58544 127505432.637 7  99354895.81344
      1030.208         802.754  
  23090989.602 7  23090989.39145  23090994.61145 121343960.921 7  94553748.09745
       644.878         502.496  
  22492554.645 8  22492554.40046  22492558.94446 118199156.135 8  92103244.51046
      -586.801        -457.243  
  23839627.126 6  23839625.17343  23839632.85543 125278091.297 6  97619294.26743
      1448.819        1128.968  
  23697982.829 7  23697981.98744  23697987.62344 124533726.387 7  97039272.82944
      4935.574        3845.896  
  21533356.488 8  21533356.11846  21533362.12046 113158534.773 8  88175486.46346
      2599.899        2025.896  
  22530506.505 7  22530505.77546  22530513.12346 118398607.015 7  92258663.52746
      1516.162        1181.424  
  20046313.106 8  20046312.72347  20046315.84947 105344080.571 8  82086305.94447
      2902.748        2261.886  
  23590025.775 7  23590025.50445  23590032.79845 123966420.586 7  96597215.57645
      5119.188        3988.966  
 18  2 21 16 44 20.0000000  0  9G 2G12G15G20G21G24G25G29G32         
  24263282.604 7  24263282.83744  24263285.64144 127504402.536 7  99354093.14144
      1029.997         802.589  
  23090866.778 7  23090866.76945  23090871.87845 121343316.007 7  94553245.56445
       645.019         502.617  
  22492666.388 8  22492666.09246  22492670.65446 118199742.849 8  92103701.69146
      -586.699        -457.171  
  23839351.235 6  23839349.20143  23839357.20143 125276642.119 6  97618165.03243
      1449.439        1129.435  
  23697043.518 7  23697042.69644  23697048.54444 124528790.703 7  97035426.85144
      4935.796        3846.063  
  21532861.676 8  21532861.39746  21532867.39046 113155934.947 8  88173460.62746
      2599.740        2025.768  
  22530217.806 7  22530217.20446  22530224.60446 118397090.935 7  92257482.16546
      1516.080        1181.361  
  20045760.806 8  20045760.41247  20045763.54047 105341178.085 8  82084044.26647
      2902.219        2261.467  
  23589051.465 7  23589051.48745  23589058.54645 123961301.727 7  96593226.85945
      5118.642        3988.550  
 18  2 21 16 44 21.0000000  0  9G 2G12G15G20G21G24G25G29G32         
  24263086.902 7  24263086.88944  24263089.52744 127503372.813 7  99353290.76044
      1029.533         802.234  
  23090744.129 7  23090744.04145  23090749.11945 121342670.885 7  94552742.87145
       645.225         502.773  
  22492777.962 8  22492777.80146  22492782.32446 118200329.742 8  92104159.00746
      -586.982        -457.384  
  23839075.196 6  23839073.80943  23839080.75843 125275192.703 6  97617035.61743
      1449.536        1129.504  
  23696104.393 7  23696103.43944  23696109.36044 124523854.821 7  97031580.71744
      4935.981        3846.212  
  21532367.007 8  21532366.67846  21532372.72746 113153335.397 8  88171435.00246
      2599.412        2025.519  
  22529929.381 8  22529928.64046  22529936.15246 118395574.717 8  92256300.69746
      1516.286        1181.521  
  20045208.482 8  20045208.18747  20045211.34447 105338276.188 8  82081783.04847
      2901.601        2260.988  
  23588077.592 7  23588077.33445  23588084.58745 123956183.007 7  96589238.24845
      5118.651        3988.557  
 18  2 21 16 44 22.0000000  0  9G 2G12G15G20G21G24G25G29G32         
  24262891.004 6  24262890.99944  24262893.66444 127502343.399 6  99352488.61344
      1029.259         802.031  
  23090621.359 7  23090621.31145  23090626.24345 121342025.562 7  94552240.03045
       645.424         502.915  
  22492889.653 8  22492889.54946  22492894.14946 118200916.755 8  92104616.42046
      -587.074        -457.460  
  23838799.089 6  23838797.69443  23838805.02743 125273742.917 6  97615905.92243
      1449.971        1129.835  
  23695165.126 7  23695163.86344  23695169.82544 124518918.777 7  97027734.45144
      4936.126        3846.331  
  21531872.329 8  21531872.02246  21531878.12446 113150736.134 8  88169409.60346
      2599.120        2025.286  
  22529640.862 8  22529640.02146  22529647.61946 118394058.469 8  92255119.20946
      1516.264        1181.498  
  20044656.411 8  20044656.08547  20044659.26047 105335374.895 8  82079522.30047
      2900.991        2260.514  
  23587103.387 7  23587103.47644  23587110.52844 123951064.721 7  96585249.97544
      5118.068        3988.104  
 18  2 21 16 44 23.0000000  0  9G 2G12G15G20G21G24G25G29G32         
  24262695.333 6  24262695.23544  24262697.85444 127501314.181 6  99351686.61944
      1029.120         801.918  
  23090498.470 7  23090498.62345  23090503.45445 121341379.918 7  94551736.92745
       645.805         503.234  
  22493001.238 8  22493001.36046  22493005.94546 118201503.887 8  92105073.92446
      -587.190        -457.550  
  23838523.260 6  23838521.09443  23838528.83643 125272292.842 6  97614776.00143
      1450.218        1130.033  
  23694225.666 7  23694224.70344  23694230.71744 124513982.558 7  97023888.05644
      4936.306        3846.460  
  21531377.728 8  21531377.41446  21531383.63646 113148137.063 8  88167384.35246
      2598.974        2025.176  
  22529352.237 7  22529351.36546  22529359.03946 118392542.042 7  92253937.57946
      1516.515        1181.701  
  20044104.465 8  20044104.07047  20044107.25547 105332474.137 8  82077261.96847
      2900.491        2260.123  
  23586129.420 7  23586129.52444  23586136.54744 123945946.570 7  96581261.81344
      5118.084        3988.105  
 18  2 21 16 44 24.0000000  0  9G 2G12G15G20G21G24G25G29G32         
  24262499.362 6  24262499.23744  24262502.05744 127500285.252 6  99350884.86044
      1028.784         801.640  
  23090375.777 7  23090375.66845  23090380.36645 121340733.976 7  94551233.59545
       646.091         503.446  
  22493112.971 8  22493113.14346  22493117.70246 118202091.033 8  92105531.43746
      -587.153        -457.518  
  23838247.052 6  23838244.78343  23838252.78543 125270842.326 6  97613645.73143
      1450.737        1130.446  
  23693286.220 7  23693285.47944  23693291.11144 124509046.077 7  97020041.44744
      4936.612        3846.715  
  21530883.234 8  21530882.86446  21530889.08646 113145538.171 8  88165359.24246
      2598.803        2025.040  
  22529063.548 7  22529062.72946  22529070.39646 118391025.478 7  92252755.84246
      1516.632        1181.790  
  20043552.578 8  20043552.20047  20043555.35347 105329573.874 8  82075002.02447
      2900.014        2259.749  
  23585155.565 7  23585155.51944  23585162.60444 123940828.672 7  96577273.84344
      5117.772        3987.874  
 18  2 21 16 44 25.0000000  0  9G 2G12G15G20G21G24G25G29G32         
  24262303.638 7  24262303.54344  24262306.41944 127499256.603 7  99350083.31044
      1028.509         801.446  
  23090252.740 7  23090252.66045  23090257.42445 121340087.785 7  94550730.07445
       646.315         503.616  
  22493224.828 8  22493224.87746  22493229.46046 118202678.311 8  92105989.05746
      -587.344        -457.674  
  23837970.796 6  23837968.90643  23837976.76643 125269391.480 6  97612515.20343
      1451.011        1130.656  
  23692346.474 7  23692346.24444  23692351.63644 124504109.450 7  97016194.73244
      4936.700        3846.768  
  21530388.797 8  21530388.36746  21530394.60046 113142939.513 8  88163334.31546
      2598.541        2024.835  
  22528774.940 8  22528774.17146  22528781.85246 118389508.829 8  92251574.03946
      1516.692        1181.836  
  20043000.828 8  20043000.42347  20043003.56947 105326674.201 8  82072742.53947
      2899.378        2259.256  
  23584182.020 6  23584181.45544  23584188.75344 123935711.026 6  96573286.07044
      5117.519        3987.675  
 18  2 21 16 44 26.0000000  0  9G 2G12G15G20G21G24G25G29G32         
  24262108.237 7  24262107.84244  24262110.83344 127498228.174 7  99349281.93944
      1028.318         801.282  
  23090129.490 7  23090129.55245  23090134.30145 121339441.348 7  94550226.35445
       646.561         503.818  
  22493336.660 8  22493336.65346  22493341.19146 118203265.687 8  92106446.75446
      -587.426        -457.735  
  23837695.553 6  23837692.95843  23837700.60043 125267940.359 6  97611384.46843
      1451.257        1130.837  
  23691406.884 7  23691406.78444  23691412.30244 124499172.576 7  97012347.82644
      4936.997        3847.001  
  21529894.308 8  21529893.88046  21529900.11446 113140341.078 8  88161309.56246
      2598.323        2024.666  
  22528486.459 8  22528485.53646  22528493.32046 118387992.038 8  92250392.12846
      1516.863        1181.964  
  20042449.078 8  20042448.74847  20042451.87047 105323775.078 8  82070483.48247
      2898.849        2258.843  
  23583208.088 7  23583207.62444  23583214.96544 123930593.689 7  96569298.53344
      5117.182        3987.418  
 18  2 21 16 44 27.0000000  0  9G 2G12G15G20G21G24G25G29G32         
  24261912.549 7  24261912.07344  24261915.10344 127497200.125 7  99348480.86044
      1027.860         800.933  
  23090006.563 7  23090006.43945  23090011.10345 121338794.727 7  94549722.49345
       646.713         503.933  
  22493448.422 8  22493448.44446  22493452.96346 118203853.170 8  92106904.52946
      -587.536        -457.813  
  23837418.842 6  23837416.93043  23837424.61643 125266488.788 6  97610253.38243
      1451.797        1131.263  
  23690467.695 7  23690467.18044  23690472.91844 124494235.513 7  97008500.77644
      4937.158        3847.123  
  21529399.910 8  21529399.37746  21529405.72446 113137742.921 8  88159285.02146
      2598.018        2024.434  
  22528197.810 8  22528196.87646  22528204.70546 118386475.207 8  92249210.18146
      1516.851        1181.965  
  20041897.575 8  20041897.22147  20041900.30347 105320876.534 8  82068224.87847
      2898.253        2258.377  
  23582233.768 6  23582233.82544  23582241.18744 123925476.658 6  96565311.23244
      5116.878        3987.184  
 18  2 21 16 44 28.0000000  0  9G 2G12G15G20G21G24G25G29G32         
  24261716.964 6  24261716.42144  24261719.44744 127496172.313 6  99347679.96144
      1027.693         800.809  
  23089883.366 7  23089883.53345  23089887.89445 121338147.784 7  94549218.38345
       647.104         504.233  
  22493560.162 7  22493560.26146  22493564.75946 118204440.787 7  92107362.41546
      -587.683        -457.943  
  23837143.292 6  23837140.00243  23837148.42143 125265036.953 6  97609122.07543
      1451.967        1131.416  
  23689527.730 7  23689527.63744  23689533.27944 124489298.309 7  97004653.60544
      4937.274        3847.232  
  21528905.630 8  21528904.96746  21528911.39346 113135144.984 8  88157260.65546
      2597.827        2024.279  
  22527909.080 8  22527908.20346  22527916.02846 118384958.247 8  92248028.13246
      1517.024        1182.101  
  20041345.889 8  20041345.73647  20041348.87247 105317978.577 8  82065966.73147
      2897.665        2257.918  
  23581260.064 7  23581260.22044  23581267.39744 123920359.845 7  96561324.10944
      5116.704        3987.033  
 18  2 21 16 44 29.0000000  0  9G 2G12G15G20G21G24G25G29G32         
  24261521.480 7  24261520.94344  24261523.99244 127495144.788 7  99346879.29344
      1027.381         800.552  
  23089760.200 7  23089760.49645  23089764.77645 121337500.658 7  94548714.13545
       647.217         504.317  
  22493672.177 8  22493672.11546  22493676.49446 118205028.538 8  92107820.40446
      -587.818        -458.039  
  23836866.375 5  23836864.01143  23836872.18743 125263584.789 5  97607990.50043
      1452.328        1131.710  
  23688588.642 7  23688588.26044  23688594.01244 124484360.947 7  97000806.31344
      4937.442        3847.352  
  21528411.328 8  21528410.57446  21528417.08946 113132547.302 8  88155236.49246
      2597.555        2024.062  
  22527620.313 8  22527619.51946  22527627.35046 118383441.264 8  92246846.06846
      1516.994        1182.071  
  20040794.607 8  20040794.38047  20040797.46147 105315081.229 8  82063709.05647
      2897.042        2257.438  
  23580286.381 7  23580286.68044  23580293.68244 123915243.412 7  96557337.27644
      5116.244        3986.688  
 18  2 21 16 44 30.0000000  0  9G 2G12G15G20G21G24G25G29G32         
  24261326.057 6  24261325.56744  24261328.59444 127494117.545 6  99346078.85244
      1027.102         800.327  
  23089637.046 7  23089637.30845  23089641.55745 121336853.276 7  94548209.67745
       647.511         504.563  
  22493784.163 8  22493784.03146  22493788.29346 118205616.359 8  92108278.44046
      -587.857        -458.060  
  23836589.794 5  23836587.84543  23836595.53643 125262132.289 5  97606858.68543
      1452.668        1131.935  
  23687648.964 7  23687648.70244  23687654.17544 124479423.414 7  96996958.89444
      4937.617        3847.483  
  21527917.011 8  21527916.27046  21527922.80546 113129949.817 8  88153212.47846
      2597.386        2023.938  
  22527331.617 8  22527330.67846  22527338.64146 118381924.107 8  92245663.86646
      1517.244        1182.271  
  20040243.394 8  20040243.12447  20040246.23647 105312184.410 8  82061451.79347
      2896.555        2257.057  
  23579312.860 7  23579312.96344  23579319.87944 123910127.174 7  96553350.59844
      5116.140        3986.601  
 18  2 21 16 44 31.0000000  0  9G 2G12G15G20G21G24G25G29G32         
  24261130.698 6  24261130.20844  24261133.11544 127493090.589 6  99345278.62444
      1026.812         800.122  
  23089513.793 7  23089514.11945  23089518.27845 121336205.622 7  94547705.00945
       647.790         504.774  
  22493896.164 8  22493895.84646  22493900.17746 118206204.313 8  92108736.58246
      -588.019        -458.195  
  23836313.423 6  23836311.77543  23836319.31443 125260679.404 6  97605726.57043
      1453.078        1132.265  
  23686709.521 7  23686708.92144  23686714.39744 124474485.682 7  96993111.30344
      4937.832        3847.677  
  21527422.772 8  21527422.02446  21527428.51346 113127352.577 8  88151188.65646
      2597.118        2023.727  
  22527042.883 8  22527041.98746  22527049.95746 118380406.882 8  92244481.61646
      1517.259        1182.275  
  20039692.284 8  20039691.98347  20039695.09947 105309288.176 8  82059194.98847
      2895.942        2256.577  
  23578339.271 6  23578339.53644  23578346.55544 123905011.236 6  96549364.15744
      5115.787        3986.321  
 18  2 21 16 44 32.0000000  0  9G 2G12G15G20G21G24G25G29G32         
  24260935.164 6  24260934.78244  24260937.76244 127492063.934 6  99344478.63344
      1026.504         799.872  
  23089390.511 7  23089390.97345  23089395.05645 121335557.739 7  94547200.16945
       647.997         504.926  
  22494008.172 8  22494007.78046  22494012.01246 118206792.359 8  92109194.80046
      -588.092        -458.256  
  23836037.137 6  23836035.44743  23836042.82143 125259226.248 6  97604594.25643
      1453.291        1132.414  
  23685769.289 7  23685769.07944  23685774.57444 124469547.759 7  96989263.57144
      4938.018        3847.802  
  21526928.805 8  21526927.87146  21526934.36346 113124755.577 8  88149165.01946
      2596.878        2023.543  
  22526754.012 8  22526753.31446  22526761.24246 118378889.565 8  92243299.28746
      1517.364        1182.367  
  20039141.336 8  20039140.96247  20039144.03347 105306392.495 8  82056938.61147
      2895.404        2256.163  
  23577365.369 6  23577365.95744  23577373.19944 123899895.546 6  96545377.91044
      5115.566        3986.151  
 18  2 21 16 44 33.0000000  0  9G 2G12G15G20G21G24G25G29G32         
  24260739.846 7  24260739.41444  24260742.59444 127491037.554 7  99343678.85044
      1026.242         799.678  
  23089267.276 7  23089267.58345  23089271.55445 121334909.642 7  94546695.16245
       648.204         505.090  
  22494120.088 8  22494119.69546  22494123.94046 118207380.507 8  92109653.10046
      -588.198        -458.340  
  23835760.547 6  23835758.44743  23835766.22943 125257772.663 6  97603461.57343
      1453.800        1132.866  
  23684829.946 7  23684829.36344  23684834.73244 124464609.620 7  96985415.67444
      4938.247        3847.979  
  21526434.588 8  21526433.67046  21526440.26346 113122158.820 8  88147141.57446
      2596.637        2023.349  
  22526465.372 7  22526464.60846  22526472.56946 118377372.172 7  92242116.90446
      1517.430        1182.411  
  20038590.395 8  20038590.03347  20038593.07447 105303497.410 8  82054682.70347
      2894.786        2255.673  
  23576391.733 7  23576392.50344  23576399.81444 123894780.238 7  96541391.96044
      5115.118        3985.801  
 18  2 21 16 44 34.0000000  0  9G 2G12G15G20G21G24G25G29G32         
  24260544.507 7  24260544.04544  24260547.36344 127490011.377 7  99342879.22844
      1026.075         799.542  
  23089143.927 7  23089144.12745  23089148.07945 121334261.193 7  94546189.87645
       648.625         505.427  
  22494232.098 8  22494231.62846  22494235.98446 118207968.712 8  92110111.44446
      -588.235        -458.366  
  23835484.131 6  23835481.54143  23835489.38343 125256318.782 6  97602328.68243
      1454.028        1132.996  
  23683890.234 7  23683889.65344  23683894.81944 124459671.261 7  96981567.60544
      4938.469        3848.155  
  21525940.384 8  21525939.54546  21525946.12346 113119562.223 8  88145118.25446
      2596.516        2023.257  
  22526176.613 7  22526175.78846  22526183.83646 118375854.588 7  92240934.37246
      1517.680        1182.606  
  20038039.622 8  20038039.21447  20038042.28247 105300602.809 8  82052427.17047
      2894.359        2255.345  
  23575418.472 7  23575419.34444  23575426.46444 123889665.037 7  96537406.09444
      5115.147        3985.824  
 18  2 21 16 44 35.0000000  0  9G 2G12G15G20G21G24G25G29G32         
  24260349.556 6  24260348.84244  24260352.15244 127488985.412 6  99342079.77744
      1025.860         799.366  
  23089020.463 7  23089020.66645  23089024.55445 121333612.467 7  94545684.37445
       648.864         505.608  
  22494343.799 8  22494343.55546  22494347.97546 118208556.961 8  92110569.81046
      -588.270        -458.377  
  23835207.046 6  23835204.58143  23835211.85143 125254864.434 6  97601195.41243
      1454.582        1133.459  
  23682950.880 7  23682949.89644  23682955.33844 124454732.647 7  96977719.34244
      4938.741        3848.361  
  21525446.225 8  21525445.40246  21525452.02946 113116965.822 8  88143095.08446
      2596.304        2023.096  
  22525888.031 7  22525887.07746  22525894.92446 118374336.844 7  92239751.71746
      1517.824        1182.718  
  20037488.872 8  20037488.46947  20037491.54947 105297708.720 8  82050172.03747
      2893.833        2254.934  
  23574445.346 7  23574445.91844  23574453.15544 123884550.091 7  96533420.42344
      5114.818        3985.574  
 18  2 21 16 44 36.0000000  0  9G 2G12G15G20G21G24G25G29G32         
  24260154.361 6  24260153.68744  24260157.09144 127487959.739 6  99341280.55444
      1025.526         799.108  
  23088896.814 7  23088897.13645  23088901.10245 121332963.467 7  94545178.66145
       649.137         505.820  
  22494455.872 7  22494455.43746  22494459.89546 118209145.291 7  92111028.25046
      -588.370        -458.477  
  23834929.949 6  23834928.03143  23834935.06143 125253409.708 6  97600061.86643
      1454.915        1133.683  
  23682011.031 7  23682009.83444  23682015.74544 124449793.779 7  96973870.87444
      4938.996        3848.569  
  21524952.185 8  21524951.34146  21524957.99046 113114369.639 8  88141072.08546
      2596.073        2022.913  
  22525599.154 7  22525598.13646  22525606.03546 118372819.000 7  92238568.98046
      1517.894        1182.777  
  20036938.243 8  20036937.85447  20036940.91347 105294815.187 8  82047917.33647
      2893.256        2254.485  
  23573472.556 6  23573472.60844  23573479.94244 123879435.449 6  96529434.99244
      5114.489        3985.311  
 18  2 21 16 44 37.0000000  0  9G 2G12G15G20G21G24G25G29G32         
  24259959.411 6  24259958.43144  24259961.92144 127486934.372 6  99340481.57344
      1025.214         798.861  
  23088773.475 7  23088773.69445  23088777.56145 121332314.228 7  94544672.76045
       649.358         505.994  
  22494567.916 8  22494567.42846  22494571.77646 118209733.742 8  92111486.77846
      -588.513        -458.572  
  23834653.161 6  23834651.02443  23834658.40043 125251954.724 6  97598928.10643
      1455.114        1133.868  
  23681070.980 6  23681069.91144  23681075.77444 124444854.801 6  96970022.32244
      4939.032        3848.595  
  21524458.194 8  21524457.37446  21524464.04146 113111773.697 8  88139049.27346
      2595.821        2022.718  
  22525310.098 7  22525309.27046  22525317.16346 118371301.048 7  92237386.15846
      1518.005        1182.863  
  20036387.607 8  20036387.39347  20036390.37847 105291922.238 8  82045663.08747
      2892.657        2254.022  
  23572499.680 7  23572499.50944  23572506.45544 123874321.015 7  96525449.72344
      5114.331        3985.189  
 18  2 21 16 44 38.0000000  0  9G 2G12G15G20G21G24G25G29G32         
  24259764.099 6  24259763.22944  24259766.96944 127485909.282 6  99339682.79744
      1024.951         798.672  
  23088649.833 7  23088650.13345  23088653.76645 121331664.770 7  94544166.68645
       649.567         506.160  
  22494679.937 8  22494679.51646  22494683.85346 118210322.332 8  92111945.42146
      -588.658        -458.701  
  23834376.601 6  23834374.12243  23834380.83843 125250499.373 6  97597794.07943
      1455.533        1134.161  
  23680130.914 7  23680130.00744  23680135.81444 124439915.653 7  96966173.64544
      4939.234        3848.739  
  21523964.380 8  21523963.48446  21523970.03346 113109177.974 8  88137026.63246
      2595.614        2022.556  
  22525021.235 8  22525020.37046  22525028.25046 118369783.031 8  92236203.28946
      1518.050        1182.893  
  20035837.211 8  20035837.01347  20035839.99047 105289029.864 8  82043409.29147
      2892.087        2253.569  
  23571526.203 7  23571526.17744  23571533.33944 123869206.942 7  96521464.72844
      5113.892        3984.857  
 18  2 21 16 44 39.0000000  0  9G 2G12G15G20G21G24G25G29G32         
  24259568.641 6  24259568.15044  24259571.91844 127484884.414 6  99338884.19344
      1024.758         798.519  
  23088526.307 7  23088526.49945  23088530.10345 121331014.987 7  94543660.35845
       649.945         506.456  
  22494791.800 8  22494791.51746  22494795.78246 118210910.949 8  92112404.08346
      -588.631        -458.670  
  23834099.814 6  23834097.05043  23834104.00043 125249043.611 6  97596659.72143
      1455.967        1134.522  
  23679190.966 7  23679190.04044  23679195.76144 124434976.240 7  96962324.75844
      4939.545        3848.992  
  21523470.430 7  21523469.59846  21523476.06546 113106582.433 7  88135004.13146
      2595.449        2022.431  
  22524732.244 7  22524731.49846  22524739.34146 118368264.844 7  92235020.28246
      1518.272        1183.077  
  20035286.962 8  20035286.70247  20035289.68947 105286138.003 8  82041155.89147
      2891.605        2253.202  
  23570552.847 7  23570553.03744  23570559.88644 123864093.061 7  96517479.88244
      5113.786        3984.772  
 18  2 21 16 44 40.0000000  0  9G 2G12G15G20G21G24G25G29G32         
  24259373.587 6  24259373.05444  24259377.05644 127483859.773 6  99338085.77844
      1024.526         798.320  
  23088402.554 7  23088402.91045  23088406.29745 121330364.963 7  94543153.84645
       650.145         506.603  
  22494903.768 8  22494903.55346  22494907.80546 118211499.663 8  92112862.82146
      -588.762        -458.776  
  23833822.204 6  23833820.25743  23833827.10043 125247587.499 6  97595525.08743
      1456.287        1134.772  
  23678251.066 7  23678249.92344  23678255.63144 124430036.629 7  96958475.70944
      4939.711        3849.130  
  21522976.574 8  21522975.75446  21522982.22446 113103987.117 8  88132981.80846
      2595.204        2022.234  
  22524443.332 7  22524442.60946  22524450.46246 118366746.560 7  92233837.20146
      1518.332        1183.116  
  20034736.809 8  20034736.51347  20034739.50547 105283246.707 8  82038902.93547
      2891.012        2252.735  
  23569579.356 7  23569579.68844  23569586.85544 123858979.454 7  96513495.25744
      5113.470        3984.514  
 18  2 21 16 44 41.0000000  0  9G 2G12G15G20G21G24G25G29G32         
  24259178.730 6  24259178.00544  24259182.05444 127482835.529 6  99337287.67144
      1024.047         797.954  
  23088278.906 7  23088279.13545  23088282.49645 121329714.748 7  94542647.18445
       650.311         506.737  
  22495015.807 8  22495015.58546  22495019.89046 118212088.527 8  92113321.67546
      -588.939        -458.913  
  23833544.640 5  23833543.20143  23833549.91243 125246131.005 5  97594390.16643
      1456.686        1135.065  
  23677311.091 7  23677309.95244  23677315.60844 124425096.873 7  96954626.55144
      4939.828        3849.213  
  21522482.737 8  21522481.99746  21522488.38946 113101392.136 8  88130959.74446
      2594.813        2021.934  
  22524154.613 8  22524153.70046  22524161.57346 118365228.211 8  92232654.07346
      1518.381        1183.152  
  20034186.727 8  20034186.40547  20034189.44747 105280356.012 8  82036650.44647
      2890.394        2252.255  
  23568606.244 7  23568606.85744  23568614.00744 123853866.150 7  96509510.87344
      5113.153        3984.263  
 18  2 21 16 44 42.0000000  0  9G 2G12G15G20G21G24G25G29G32         
  24258983.537 6  24258983.15344  24258987.27244 127481811.564 6  99336489.77944
      1023.824         797.783  
  23088155.267 7  23088155.38145  23088158.79545 121329064.271 7  94542140.32345
       650.607         506.961  
  22495127.829 8  22495127.68446  22495132.12946 118212677.512 8  92113780.62246
      -589.046        -458.993  
  23833267.791 5  23833265.76043  23833273.18043 125244674.323 5  97593255.08743
      1456.774        1135.157  
  23676370.820 7  23676369.70544  23676375.55144 124420156.931 7  96950777.24544
      4940.035        3849.379  
  21521988.881 8  21521988.23746  21521994.56246 113098797.374 8  88128937.85346
      2594.652        2021.805  
  22523865.567 7  22523864.81146  22523872.65646 118363709.759 7  92231470.86746
      1518.504        1183.246  
  20033636.693 8  20033636.42647  20033639.45547 105277465.887 8  82034398.39947
      2889.840        2251.825  
  23567633.232 6  23567633.91844  23567641.17644 123848753.128 6  96505526.70144
      5112.880        3984.066  
 18  2 21 16 44 43.0000000  0  9G 2G12G15G20G21G24G25G29G32         
  24258788.939 6  24258788.44744  24258792.44744 127480787.812 6  99335692.04944
      1023.646         797.650  
  23088031.375 7  23088031.51845  23088034.90845 121328413.514 7  94541633.24045
       650.897         507.193  
  22495239.795 8  22495239.83146  22495244.20146 118213266.567 8  92114239.62246
      -589.090        -459.027  
  23832990.303 5  23832988.50543  23832995.80843 125243217.265 5  97592119.73343
      1457.247        1135.492  
  23675430.636 7  23675429.61044  23675435.45844 124415216.786 7  96946927.78544
      4940.247        3849.537  
  21521495.183 8  21521494.49646  21521500.78946 113096202.851 8  88126916.14746
      2594.403        2021.613  
  22523576.730 7  22523575.84746  22523583.64146 118362191.187 7  92230287.56446
      1518.631        1183.350  
  20033086.846 8  20033086.56847  20033089.55547 105274576.317 8  82032146.78747
      2889.293        2251.395  
  23566660.372 7  23566660.92244  23566668.22544 123843640.360 7  96501542.72144
      5112.642        3983.883  
 18  2 21 16 44 44.0000000  0  9G 2G12G15G20G21G24G25G29G32         
  24258594.072 7  24258593.79144  24258597.58544 127479764.445 7  99334894.61244
      1023.175         797.289  
  23087907.346 7  23087907.72945  23087911.16245 121327762.571 7  94541126.01045
       651.036         507.304  
  22495352.004 7  22495351.95046  22495356.27546 118213855.757 7  92114698.73246
      -589.257        -459.164  
  23832713.613 5  23832711.27243  23832718.36143 125241759.890 5  97590984.09843
      1457.533        1135.777  
  23674490.902 7  23674489.56444  23674495.40944 124410276.493 7  96943078.20844
      4940.366        3849.636  
  21521001.480 8  21521000.86046  21521007.12546 113093608.599 8  88124894.65346
      2594.116        2021.388  
  22523287.855 7  22523286.89946  22523294.61146 118360672.547 7  92229104.20746
      1518.674        1183.385  
  20032537.133 8  20032536.84347  20032539.79247 105271687.356 8  82029895.64747
      2888.655        2250.904  
  23565687.821 6  23565688.00444  23565695.20844 123838527.907 6  96497558.99444
      5112.295        3983.601  
 18  2 21 16 44 45.0000000  0  9G 2G12G15G20G21G24G25G29G32         
  24258399.258 6  24258398.97644  24258402.93644 127478741.202 6  99334097.28444
      1023.179         797.275  
  23087783.459 7  23087783.62745  23087787.28745 121327111.309 7  94540618.53945
       651.422         507.590  
  22495464.103 8  22495464.04046  22495468.31246 118214445.005 8  92115157.88546
      -589.277        -459.176  
  23832436.414 6  23832433.79243  23832441.20843 125240302.002 6  97589848.07343
      1458.144        1136.219  
  23673550.762 7  23673549.26644  23673555.09244 124405335.970 7  96939228.44644
      4940.638        3849.854  
  21520507.882 8  21520507.16746  21520513.51646 113091014.519 8  88122873.29246
      2593.994        2021.294  
  22522998.849 7  22522997.96246  22523005.64046 118359153.792 7  92227920.76546
      1518.812        1183.484  
  20031987.437 8  20031987.15947  20031990.14547 105268798.903 8  82027644.90547
      2888.201        2250.544  
  23564715.238 7  23564715.40544  23564722.43244 123833415.735 7  96493575.48744
      5112.031        3983.396  
 18  2 21 16 44 46.0000000  0  9G 2G12G15G20G21G24G25G29G32         
  24258204.776 6  24258204.33144  24258208.28844 127477718.248 6  99333300.18044
      1022.811         796.991  
  23087659.661 7  23087659.80545  23087663.18945 121326459.725 7  94540110.81045
       651.745         507.858  
  22495576.288 8  22495576.28446  22495580.46746 118215034.383 8  92115617.14246
      -589.443        -459.308  
  23832158.245 6  23832156.59043  23832163.51143 125238843.934 6  97588711.92143
      1458.157        1136.215  
  23672610.514 7  23672608.95744  23672614.86244 124400395.323 7  96935378.60344
      4940.710        3849.883  
  21520014.189 8  21520013.60046  21520019.99346 113088420.615 8  88120852.07046
      2593.816        2021.153  
  22522709.877 7  22522709.00046  22522716.54946 118357634.864 7  92226737.18846
      1519.014        1183.644  
  20031437.890 8  20031437.65047  20031440.68547 105265911.035 8  82025394.62147
      2887.574        2250.053  
  23563742.548 7  23563742.69644  23563749.65344 123828303.783 7  96489592.14444
      5111.842        3983.261  
 18  2 21 16 44 47.0000000  0  9G 2G12G15G20G21G24G25G29G32         
  24258010.174 6  24258009.77344  24258013.70244 127476695.586 6  99332503.29844
      1022.516         796.770  
  23087535.673 7  23087535.93045  23087539.12645 121325808.009 7  94539602.98145
       651.782         507.879  
  22495688.619 7  22495688.46546  22495692.62746 118215623.830 7  92116076.45746
      -589.482        -459.345  
  23831880.518 6  23831879.58643  23831885.63243 125237385.401 6  97587575.41443
      1458.766        1136.686  
  23671670.232 7  23671668.69444  23671674.54644 124395454.425 7  96931528.56044
      4941.022        3850.144  
  21519520.588 8  21519519.99746  21519526.37546 113085826.953 8  88118831.03446
      2593.540        2020.944  
  22522420.919 8  22522420.12246  22522427.42546 118356115.948 8  92225553.61646
      1518.911        1183.569  
  20030888.500 8  20030888.23447  20030891.24447 105263023.733 8  82023144.77947
      2887.019        2249.622  
  23562769.618 7  23562769.91344  23562776.92844 123823192.204 7  96485609.09444
      5111.393        3982.905  
 18  2 21 16 44 48.0000000  0  9G 2G12G15G20G21G24G25G29G32         
  24257816.041 7  24257815.22244  24257819.13044 127475673.275 7  99331706.69044
      1022.134         796.471  
  23087411.498 7  23087411.72145  23087414.84745 121325156.012 7  94539094.92645
       652.138         508.168  
  22495800.629 7  22495800.64346  22495804.75446 118216213.399 7  92116535.85946
      -589.629        -459.445  
  23831603.380 6  23831602.62343  23831607.91443 125235926.634 6  97586438.71743
      1458.884        1136.791  
  23670729.952 7  23670728.58144  23670734.43544 124390513.329 7  96927678.36344
      4941.196        3850.275  
  21519026.956 8  21519026.50646  21519032.88046 113083233.602 8  88116810.24046
      2593.197        2020.672  
  22522131.765 8  22522131.08546  22522138.27146 118354596.862 8  92224369.91346
      1519.170        1183.769  
  20030339.046 8  20030338.92147  20030341.92647 105260136.991 8  82020895.36647
      2886.462        2249.197  
  23561797.048 7  23561797.25844  23561804.21644 123818080.785 7  96481626.16044
      5111.339        3982.875  
 18  2 21 16 44 49.0000000  0  9G 2G12G15G20G21G24G25G29G32         
  24257621.852 7  24257620.74344  24257624.43444 127474651.129 7  99330910.21344
      1022.065         796.411  
  23087287.513 7  23087287.36845  23087290.55645 121324503.615 7  94538586.56845
       652.596         508.510  
  22495912.954 8  22495912.86746  22495917.04046 118216803.068 8  92116995.33846
      -589.721        -459.517  
  23831325.514 6  23831324.60043  23831330.49843 125234467.447 6  97585301.69343
      1459.396        1137.188  
  23669789.871 7  23669788.17144  23669794.15544 124385572.035 7  96923828.01244
      4941.392        3850.427  
  21518533.595 8  21518533.07146  21518539.41646 113080640.338 8  88114789.51846
      2593.219        2020.686  
  22521842.719 8  22521842.10146  22521849.09946 118353077.531 8  92223186.02046
      1519.454        1183.988  
  20029789.882 8  20029789.72147  20029792.73047 105257250.734 8  82018646.33647
      2886.014        2248.839  
  23560824.516 7  23560824.48844  23560831.59444 123812969.523 7  96477643.36644
      5111.182        3982.724  
 18  2 21 16 44 50.0000000  0  9G 2G12G15G20G21G24G25G29G32         
  24257427.202 7  24257426.27144  24257430.06044 127473629.361 7  99330114.02644
      1021.577         796.042  
  23087163.162 7  23087163.18945  23087166.14945 121323851.087 7  94538078.09445
       652.594         508.532  
  22496025.277 8  22496025.07746  22496029.30046 118217392.824 8  92117454.88146
      -589.798        -459.576  
  23831047.810 6  23831047.42043  23831052.37243 125233007.935 6  97584164.38843
      1459.674        1137.445  
  23668849.707 7  23668847.84444  23668853.82944 124380630.533 7  96919977.49844
      4941.607        3850.595  
  21518040.088 8  21518039.63746  21518046.04646 113078047.403 8  88112769.04946
      2592.772        2020.343  
  22521553.469 8  22521553.14546  22521559.93346 118351558.176 8  92222002.10546
      1519.367        1183.925  
  20029240.687 8  20029240.54547  20029243.62147 105254365.074 8  82016397.76947
      2885.363        2248.336  
  23559851.848 7  23559851.94644  23559858.99444 123807858.611 7  96473660.84144
      5110.737        3982.390  
 18  2 21 16 44 51.0000000  0  9G 2G12G15G20G21G24G25G29G32         
  24257232.552 6  24257231.84244  24257235.56444 127472607.789 6  99329317.99444
      1021.475         795.955  
  23087039.070 7  23087038.93045  23087042.06245 121323198.254 7  94537569.39145
       652.986         508.818  
  22496137.565 8  22496137.22146  22496141.46446 118217982.636 8  92117914.47546
      -589.841        -459.619  
  23830770.218 6  23830769.70543  23830774.88343 125231548.018 6  97583026.78843
      1460.120        1137.746  
  23667909.223 7  23667907.54544  23667913.59144 124375688.829 7  96916126.81544
      4941.804        3850.768  
  21517546.584 8  21517546.33246  21517552.61546 113075454.633 8  88110748.70946
      2592.687        2020.274  
  22521264.393 7  22521264.08346  22521270.82746 118350038.733 7  92220818.12246
      1519.488        1184.016  
  20028691.630 8  20028691.49547  20028694.62547 105251479.965 8  82014149.63547
      2884.832        2247.917  
  23558879.654 7  23558879.47844  23558886.51344 123802747.984 7  96469678.53844
      5110.485        3982.193  
 18  2 21 16 44 52.0000000  0  9G 2G12G15G20G21G24G25G29G32         
  24257038.472 6  24257037.55844  24257041.19144 127471586.543 6  99328522.21844
      1021.082         795.647  
  23086914.957 7  23086914.63645  23086917.86245 121322545.276 7  94537060.57645
       653.050         508.870  
  22496249.983 8  22496249.52346  22496253.73346 118218572.568 8  92118374.16246
      -589.991        -459.733  
  23830492.729 6  23830491.86943  23830496.81243 125230087.768 6  97581888.94243
      1460.416        1137.970  
  23666968.949 6  23666967.25244  23666973.41344 124370746.951 6  96912276.00944
      4941.964        3850.868  
  21517053.194 8  21517053.04246  21517059.24746 113072862.186 8  88108728.62246
      2592.285        2019.961  
  22520975.207 8  22520974.94146  22520981.64246 118348519.232 8  92219634.09546
      1519.530        1184.050  
  20028142.720 8  20028142.59447  20028145.68847 105248595.445 8  82011901.95747
      2884.226        2247.451  
  23557907.032 7  23557907.07944  23557914.04344 123797637.691 7  96465696.49444
      5110.126        3981.914  
 18  2 21 16 44 53.0000000  0  9G 2G12G15G20G21G24G25G29G32         
  24256844.115 7  24256843.26844  24256846.87444 127470565.599 7  99327726.67244
      1020.793         795.431  
  23086790.701 7  23086790.13245  23086793.56545 121321891.998 7  94536551.53045
       653.427         509.161  
  22496362.115 7  22496361.88446  22496366.05146 118219162.623 7  92118833.94346
      -590.118        -459.829  
  23830215.059 6  23830214.20643  23830218.33543 125228627.239 6  97580750.86543
      1460.668        1138.193  
  23666028.669 7  23666026.84444  23666032.80044 124365804.873 7  96908425.04044
      4942.178        3851.049  
  21516559.880 8  21516559.74446  21516565.93846 113070269.947 8  88106708.69746
      2592.135        2019.843  
  22520686.148 8  22520685.87446  22520692.55746 118346999.638 8  92218449.99446
      1519.641        1184.137  
  20027593.836 8  20027593.77647  20027596.94047 105245711.511 8  82009654.73647
      2883.640        2246.991  
  23556934.817 7  23556934.62844  23556941.72444 123792527.677 7  96461714.67544
      5109.873        3981.707  
 18  2 21 16 44 54.0000000  0  9G 2G12G15G20G21G24G25G29G32         
  24256649.424 7  24256649.06144  24256652.44644 127469544.968 7  99326931.37744
      1020.474         795.171  
  23086666.332 7  23086665.69745  23086669.21745 121321238.508 7  94536042.31745
       653.596         509.297  
  22496474.553 8  22496474.16546  22496478.31746 118219752.788 8  92119293.81046
      -590.219        -459.909  
  23829937.204 6  23829935.92643  23829940.21443 125227166.295 6  97579612.46643
      1461.152        1138.559  
  23665088.131 7  23665086.49244  23665092.37944 124360862.611 7  96904573.93144
      4942.354        3851.180  
  21516066.667 8  21516066.48646  21516072.70246 113067677.967 8  88104688.97246
      2591.850        2019.625  
  22520397.010 8  22520396.71746  22520403.36146 118345479.928 8  92217265.80746
      1519.767        1184.229  
  20027045.060 8  20027045.09847  20027048.27647 105242828.121 8  82007407.93847
      2883.118        2246.587  
  23555961.847 7  23555962.48344  23555969.42944 123787417.890 7  96457733.02244
      5109.675        3981.569  
 18  2 21 16 44 55.0000000  0  9G 2G12G15G20G21G24G25G29G32         
  24256455.338 7  24256454.80844  24256458.33544 127468524.540 7  99326136.23544
      1020.326         795.064  
  23086541.928 7  23086541.31445  23086544.93945 121320584.680 7  94535532.83545
       653.997         509.617  
  22496586.674 8  22496586.49045  22496590.57845 118220343.043 8  92119753.74545
      -590.300        -459.969  
  23829658.834 6  23829657.97943  23829662.02443 125225705.086 6  97578473.85243
      1461.341        1138.723  
  23664147.357 7  23664145.95844  23664151.64544 124355920.185 7  96900722.70044
      4942.509        3851.291  
  21515573.519 8  21515573.33046  21515579.48546 113065086.145 8  88102669.37046
      2591.744        2019.541  
  22520107.892 8  22520107.56946  22520114.19346 118343960.079 8  92216081.50846
      1519.919        1184.355  
  20026496.572 8  20026496.51147  20026499.69047 105239945.306 8  82005161.58947
      2882.527        2246.125  
  23554989.783 7  23554990.22944  23554997.07144 123782308.409 7  96453751.61444
      5109.327        3981.286  
 18  2 21 16 44 56.0000000  0  9G 2G12G15G20G21G24G25G29G32         
  24256261.203 7  24256260.65344  24256264.23544 127467504.377 7  99325341.30744
      1020.031         794.821  
  23086417.558 7  23086416.85845  23086420.58745 121319930.627 7  94535023.19345
       654.165         509.721  
  22496699.083 8  22496698.88545  22496702.86745 118220933.409 8  92120213.77445
      -590.422        -460.076  
  23829380.664 6  23829379.89243  23829384.27043 125224243.473 6  97577334.93343
      1461.815        1139.070  
  23663207.068 7  23663205.32244  23663211.34044 124350977.596 7  96896871.33444
      4942.670        3851.434  
  21515080.475 8  21515080.18346  21515086.34946 113062494.559 8  88100649.95546
      2591.467        2019.321  
  22519818.349 8  22519818.31946  22519824.90446 118342440.144 8  92214897.14146
      1519.977        1184.401  
  20025948.065 8  20025948.04347  20025951.20547 105237063.051 8  82002915.67747
      2881.975        2245.693  
  23554017.405 7  23554017.87444  23554024.74944 123777199.224 7  96449770.43544
      5109.036        3981.065  
 18  2 21 16 44 57.0000000  0  9G 2G12G15G20G21G24G25G29G32         
  24256066.995 7  24256066.54244  24256070.00544 127466484.561 7  99324546.64944
      1019.642         794.524  
  23086292.910 7  23086292.32845  23086296.12345 121319276.383 7  94534513.38945
       654.339         509.885  
  22496811.584 8  22496811.28045  22496815.16245 118221523.873 8  92120673.87445
      -590.513        -460.136  
  23829102.764 6  23829101.68643  23829106.20643 125222781.512 6  97576195.73643
      1462.135        1139.336  
  23662266.262 7  23662264.63744  23662270.79244 124346034.790 7  96893019.79344
      4942.914        3851.628  
  21514587.173 8  21514587.08146  21514593.27046 113059903.259 8  88098630.75746
      2591.158        2019.089  
  22519529.174 8  22519529.02746  22519535.62646 118340920.156 8  92213712.73446
      1520.014        1184.427  
  20025399.699 8  20025399.63947  20025402.86347 105234181.380 8  82000670.21747
      2881.380        2245.234  
  23553045.454 7  23553045.78544  23553052.62744 123772090.324 7  96445789.46544
      5108.759        3980.865  
 18  2 21 16 44 58.0000000  0  9G 2G12G15G20G21G24G25G29G32         
  24255873.112 7  24255872.53444  24255875.97744 127465464.960 7  99323752.14844
      1019.494         794.422  
  23086168.389 7  23086167.78845  23086171.66445 121318621.891 7  94534003.39045
       654.616         510.097  
  22496923.805 8  22496923.69545  22496927.52745 118222114.419 8  92121134.04245
      -590.587        -460.202  
  23828824.847 6  23828823.21343  23828827.89743 125221319.192 6  97575056.27443
      1462.499        1139.595  
  23661325.600 6  23661324.07044  23661330.13744 124341091.813 6  96889168.12644
      4943.063        3851.731  
  21514094.100 8  21514094.08946  21514100.12546 113057312.141 8  88096611.70646
      2591.026        2018.977  
  22519239.828 8  22519239.75846  22519246.36746 118339400.045 8  92212528.23746
      1520.172        1184.541  
  20024851.430 8  20024851.38947  20024854.64747 105231300.266 8  81998425.19747
      2880.834        2244.800  
  23552073.299 7  23552073.90244  23552080.61544 123766981.702 7  96441808.72444
      5108.482        3980.627  
 18  2 21 16 44 59.0000000  0  9G 2G12G15G20G21G24G25G29G32         
  24255679.248 7  24255678.61244  24255681.75344 127464445.658 7  99322957.89244
      1019.151         794.134  
  23086043.934 7  23086043.34345  23086046.97345 121317967.139 7  94533493.20245
       654.882         510.282  
  22497036.176 8  22497036.05545  22497039.87345 118222705.064 8  92121594.28245
      -590.695        -460.276  
  23828546.234 6  23828544.67443  23828549.32643 125219856.571 6  97573916.57043
      1462.772        1139.824  
  23660385.165 7  23660383.43844  23660389.52544 124336148.618 7  96885316.28444
      4943.303        3851.929  
  21513601.162 8  21513601.02046  21513607.07646 113054721.273 8  88094592.84746
      2590.744        2018.764  
  22518950.635 8  22518950.44246  22518957.04046 118337879.810 8  92211343.63846
      1520.298        1184.652  
  20024303.469 8  20024303.23647  20024306.49747 105228419.695 8  81996180.59547
      2880.299        2244.392  
  23551101.310 6  23551101.89844  23551108.34344 123761873.292 6  96437828.15044
      5108.304        3980.491  
 18  2 21 16 45  0.0000000  0  9G 2G12G15G20G21G24G25G29G32         
  24255485.652 7  24255484.70444  24255487.84444 127463426.687 7  99322163.89744
      1018.807         793.864  
  23085919.439 7  23085918.79645  23085922.17945 121317312.203 7  94532982.86045
       655.029         510.418  
  22497148.599 8  22497148.39245  22497152.38545 118223295.841 8  92122054.62945
      -590.843        -460.400  
  23828267.496 6  23828266.16943  23828270.54543 125218393.599 6  97572776.60243
      1463.147        1140.101  
  23659444.282 7  23659442.78644  23659448.79944 124331205.286 7  96881464.34244
      4943.401        3851.992  
  21513108.387 8  21513108.00146  21513114.13246 113052130.680 8  88092574.20146
      2590.456        2018.538  
  22518661.248 8  22518661.11546  22518667.79446 118336359.522 8  92210159.00146
      1520.314        1184.654  
  20023755.374 8  20023755.22447  20023758.44247 105225539.735 8  81993936.47047
      2879.655        2243.887  
  23550129.462 7  23550129.71544  23550136.36744 123756765.255 7  96433847.86744
      5107.850        3980.138  
 18  2 21 16 45  1.0000000  0  9G 2G12G15G20G21G24G25G29G32         
  24255291.581 6  24255290.71244  24255293.97344 127462407.974 6  99321370.09244
      1018.583         793.709  
  23085794.748 7  23085794.23245  23085797.57245 121316657.026 7  94532472.32745
       655.297         510.629  
  22497260.862 8  22497260.92545  22497264.86145 118223886.716 8  92122515.05145
      -590.924        -460.460  
  23827988.047 6  23827987.51943  23827992.33343 125216930.255 6  97571636.33643
      1463.530        1140.414  
  23658503.503 7  23658502.18944  23658508.02344 124326261.763 7  96877612.25444
      4943.619        3852.161  
  21512615.434 8  21512615.09346  21512621.18046 113049540.331 8  88090555.74946
      2590.227        2018.356  
  22518371.767 8  22518371.71146  22518378.55246 118334839.131 8  92208974.27846
      1520.442        1184.766  
  20023207.397 8  20023207.28547  20023210.55747 105222660.351 8  81991692.79247
      2879.096        2243.454  
  23549157.315 7  23549157.54744  23549164.37444 123751657.517 7  96429867.81144
      5107.589        3979.942  
 18  2 21 16 45  2.0000000  0  9G 2G12G15G20G21G24G25G29G32         
  24255097.891 7  24255096.97044  24255100.34244 127461389.505 7  99320576.48244
      1018.347         793.513  
  23085669.858 7  23085669.43645  23085672.75045 121316001.496 7  94531961.52545
       655.706         510.937  
  22497373.221 8  22497373.39845  22497377.28145 118224477.625 8  92122975.50345
      -590.927        -460.467  
  23827709.372 6  23827709.03343  23827713.91743 125215466.575 6  97570495.81043
      1463.848        1140.656  
  23657562.561 7  23657561.36544  23657567.30344 124321317.973 7  96873759.94744
      4943.924        3852.416  
  21512122.450 8  21512122.19746  21512128.27846 113046950.153 8  88088537.42946
      2590.092        2018.254  
  22518082.481 8  22518082.34846  22518089.11846 118333318.550 8  92207789.41046
      1520.676        1184.942  
  20022659.504 8  20022659.43947  20022662.72647 105219781.434 8  81989449.47947
      2878.684        2243.131  
  23548185.415 7  23548185.79344  23548192.45644 123746549.905 7  96425887.85344
      5107.548        3979.908  
 18  2 21 16 45  3.0000000  0  9G 2G12G15G20G21G24G25G29G32         
  24254904.125 7  24254903.25844  24254906.36744 127460371.328 7  99319783.10044
      1018.031         793.268  
  23085544.965 7  23085544.62245  23085548.03245 121315345.786 7  94531450.58845
       655.800         511.003  
  22497485.715 8  22497485.87645  22497489.66145 118225068.667 8  92123436.05645
      -591.108        -460.605  
  23827430.605 6  23827430.06043  23827435.29543 125214002.530 6  97569354.98143
      1464.227        1140.981  
  23656621.506 7  23656620.84344  23656626.57244 124316374.034 7  96869907.53244
      4944.013        3852.469  
  21511629.431 8  21511629.32446  21511635.40146 113044360.240 8  88086519.31646
      2589.780        2018.010  
  22517793.142 8  22517792.93446  22517799.77946 118331797.904 8  92206604.49246
      1520.678        1184.942  
  20022111.873 8  20022111.74247  20022115.02147 105216903.144 8  81987206.65747
      2877.976        2242.576  
  23547213.514 6  23547213.85944  23547220.52044 123741442.661 6  96421908.18944
      5107.060        3979.519  
 18  2 21 16 45  4.0000000  0  9G 2G12G15G20G21G24G25G29G32         
  24254710.149 7  24254709.36344  24254712.72244 127459353.532 7  99318990.01144
      1017.606         792.942  
  23085420.129 7  23085419.92945  23085423.41745 121314689.904 7  94530939.51445
       655.967         511.144  
  22497598.133 8  22497598.28245  22497602.10445 118225659.883 8  92123896.74245
      -591.303        -460.752  
  23827151.978 6  23827151.37243  23827156.76743 125212538.200 6  97568213.94543
      1464.472        1141.139  
  23655680.625 7  23655680.03744  23655685.90944 124311429.985 7  96866055.03544
      4944.105        3852.538  
  21511136.715 8  21511136.56446  21511142.61046 113041770.652 8  88084501.45546
      2589.426        2017.735  
  22517503.845 8  22517503.49146  22517510.35446 118330277.278 8  92205419.59046
      1520.616        1184.895  
  20021564.272 8  20021564.17347  20021567.48647 105214025.487 8  81984964.32647
      2877.341        2242.085  
  23546241.407 6  23546242.06644  23546248.79144 123736335.777 6  96417928.80144
      5106.704        3979.250  
 18  2 21 16 45  5.0000000  0  9G 2G12G15G20G21G24G25G29G32         
  24254516.188 7  24254515.81744  24254518.92844 127458335.947 7  99318197.08444
      1017.478         792.845  
  23085295.400 7  23085295.14445  23085298.33145 121314033.744 7  94530428.22145
       656.299         511.401  
  22497710.558 8  22497710.81245  22497714.64645 118226251.196 8  92124357.50645
      -591.361        -460.803  
  23826872.811 6  23826872.66943  23826878.05343 125211073.550 6  97567072.67343
      1464.810        1141.389  
  23654740.099 7  23654738.98444  23654745.17644 124306485.747 7  96862202.38444
      4944.332        3852.728  
  21510644.066 8  21510643.78846  21510649.85746 113039181.247 8  88082483.73646
      2589.312        2017.648  
  22517214.392 7  22517214.05846  22517220.90546 118328756.493 7  92204234.56146
      1520.865        1185.092  
  20021016.924 8  20021016.63647  20021019.94147 105211148.389 8  81982722.43247
      2876.817        2241.676  
  23545269.609 7  23545270.26644  23545276.99044 123731229.138 7  96413949.60144
      5106.517        3979.105  
 18  2 21 16 45  6.0000000  0  9G 2G12G15G20G21G24G25G29G32         
  24254322.852 7  24254322.32944  24254325.42744 127457318.657 7  99317404.39144
      1017.143         792.576  
  23085170.239 7  23085170.28845  23085173.25345 121313377.312 7  94529916.71345
       656.568         511.617  
  22497823.158 8  22497823.34245  22497827.11245 118226842.605 8  92124818.34345
      -591.458        -460.873  
  23826594.358 6  23826593.98843  23826599.62743 125209608.601 6  97565931.15743
      1465.098        1141.638  
  23653799.209 7  23653798.12544  23653804.12344 124301541.315 7  96858349.58244
      4944.529        3852.878  
  21510151.340 8  21510151.09646  21510157.12246 113036592.070 8  88080466.19446
      2589.063        2017.453  
  22516925.155 7  22516924.60246  22516931.54946 118327235.575 7  92203049.42946
      1520.984        1185.183  
  20020469.546 8  20020469.21347  20020472.53147 105208271.833 8  81980480.95747
      2876.286        2241.265  
  23544297.910 7  23544298.48244  23544305.20744 123726122.744 7  96409970.59944
      5106.272        3978.904  
 18  2 21 16 45  7.0000000  0  9G 2G12G15G20G21G24G25G29G32         
  24254129.702 7  24254128.85144  24254131.90144 127456301.688 7  99316611.94244
      1016.809         792.328  
  23085045.332 7  23085045.26345  23085048.33845 121312720.610 7  94529404.99145
       656.837         511.827  
  22497935.752 8  22497935.93945  22497939.66745 118227434.167 8  92125279.29945
      -591.639        -461.015  
  23826315.620 6  23826315.06243  23826320.87943 125208143.305 6  97564789.36143
      1465.469        1141.937  
  23652858.358 7  23652857.14244  23652863.08244 124296596.697 7  96854496.63644
      4944.711        3853.017  
  21509658.661 8  21509658.49246  21509664.46246 113034003.157 8  88078448.86046
      2588.781        2017.229  
  22516635.536 8  22516635.14646  22516642.14646 118325714.544 8  92201864.21046
      1521.087        1185.263  
  20019922.130 8  20019921.87047  20019925.25447 105205395.853 8  81978239.93247
      2875.693        2240.800  
  23543326.217 7  23543326.66944  23543333.68644 123721016.593 7  96405991.78044
      5106.029        3978.727  
 18  2 21 16 45  8.0000000  0  9G 2G12G15G20G21G24G25G29G32         
  24253936.070 7  24253935.39944  24253938.56944 127455284.889 7  99315819.62944
      1016.713         792.244  
  23084920.274 7  23084920.14245  23084923.37945 121312063.602 7  94528893.04245
       657.160         512.064  
  22498048.647 7  22498048.50045  22498052.29045 118228025.737 7  92125740.26345
      -591.574        -460.968  
  23826036.760 6  23826036.66843  23826041.91843 125206677.588 6  97563647.26043
      1465.928        1142.253  
  23651917.486 7  23651916.09344  23651921.89844 124291651.888 7  96850643.54344
      4944.904        3853.168  
  21509166.054 8  21509165.89146  21509171.82146 113031414.396 8  88076431.64546
      2588.685        2017.156  
  22516346.121 8  22516345.66346  22516352.71546 118324193.382 8  92200678.89346
      1521.229        1185.365  
  20019374.863 8  20019374.61647  20019378.10747 105202520.393 8  81975999.31547
      2875.200        2240.414  
  23542354.681 7  23542355.11044  23542361.99444 123715910.737 7  96402013.19644
      5105.708        3978.467  
 18  2 21 16 45  9.0000000  0  9G 2G12G15G20G21G24G25G29G32         
  24253742.753 7  24253742.10444  24253745.05044 127454268.495 7  99315027.63744
      1016.191         791.831  
  23084795.215 7  23084795.15645  23084798.55145 121311406.450 7  94528380.97745
       657.224         512.123  
  22498161.250 8  22498161.05945  22498165.05145 118228617.471 8  92126201.35345
      -591.816        -461.153  
  23825758.064 6  23825757.57543  23825763.17243 125205211.592 6  97562504.92243
      1466.135        1142.456  
  23650976.591 7  23650975.31944  23650980.99944 124286706.906 7  96846790.31744
      4945.068        3853.292  
  21508673.497 8  21508673.34846  21508679.17546 113028825.986 8  88074414.70446
      2588.234        2016.804  
  22516056.777 7  22516056.16446  22516063.17146 118322672.226 7  92199493.57846
      1521.153        1185.314  
  20018827.720 8  20018827.51847  20018831.09047 105199645.568 8  81973759.19447
      2874.507        2239.873  
  23541383.176 7  23541383.73544  23541390.60744 123710805.210 7  96398034.86644
      5105.363        3978.202  
 18  2 21 16 45 10.0000000  0  9G 2G12G15G20G21G24G25G29G32         
  24253549.373 7  24253548.74744  24253551.51344 127453252.284 7  99314235.78644
      1016.119         791.781  
  23084670.259 7  23084670.01345  23084673.53745 121310748.979 7  94527868.66145
       657.631         512.440  
  22498274.040 8  22498273.67345  22498277.70545 118229209.244 8  92126662.47145
      -591.793        -461.132  
  23825479.415 6  23825478.27643  23825484.02143 125203745.172 6  97561362.24743
      1466.632        1142.843  
  23650035.285 7  23650034.16244  23650040.13944 124281761.692 7  96842936.90344
      4945.331        3853.508  
  21508180.948 8  21508180.73146  21508186.65546 113026237.729 8  88072397.87846
      2588.182        2016.768  
  22515767.231 7  22515766.49746  22515773.63346 118321150.873 7  92198308.10846
      1521.451        1185.547  
  20018280.811 8  20018280.55947  20018284.07247 105196771.237 8  81971519.45547
      2874.084        2239.548  
  23540411.838 7  23540412.14744  23540419.01544 123705699.918 7  96394056.71644
      5105.175        3978.060  
 18  2 21 16 45 11.0000000  0  9G 2G12G15G20G21G24G25G29G32         
  24253356.265 7  24253355.53944  24253358.21744 127452236.368 7  99313444.15844
      1015.770         791.515  
  23084544.955 7  23084544.75045  23084548.27445 121310091.274 7  94527356.16645
       657.822         512.586  
  22498386.716 8  22498386.18445  22498390.12145 118229801.172 8  92127123.71245
      -592.005        -461.301  
  23825199.798 6  23825199.21743  23825204.76943 125202278.454 6  97560219.34443
      1466.866        1143.017  
  23649094.125 7  23649093.25944  23649099.06944 124276816.323 7  96839083.37544
      4945.445        3853.584  
  21507688.446 8  21507688.18246  21507694.14946 113023649.699 8  88070381.23046
      2587.916        2016.560  
  22515477.793 8  22515476.91646  22515484.10046 118319629.439 8  92197122.57746
      1521.474        1185.562  
  20017733.994 8  20017733.73547  20017737.26747 105193897.510 8  81969280.18947
      2873.424        2239.029  
  23539440.461 7  23539440.64844  23539447.78444 123700594.909 7  96390078.78744
      5104.867        3977.819  
 18  2 21 16 45 12.0000000  0  9G 2G12G15G20G21G24G25G29G32         
  24253162.576 7  24253162.41644  24253165.05744 127451220.797 7  99312652.80844
      1015.397         791.211  
  23084419.939 7  23084419.63245  23084423.16545 121309433.362 7  94526843.50845
       658.016         512.739  
  22498499.118 8  22498498.82945  22498502.62645 118230393.190 8  92127585.02545
      -592.063        -461.350  
  23824920.595 6  23824919.99543  23824926.02243 125200811.388 6  97559076.16743
      1467.241        1143.314  
  23648152.978 7  23648151.95344  23648157.92344 124271870.789 7  96835229.71544
      4945.618        3853.727  
  21507196.019 8  21507195.72446  21507201.75746 113021061.953 8  88068364.80246
      2587.603        2016.318  
  22515188.242 8  22515187.37946  22515194.60946 118318107.946 8  92195937.00046
      1521.523        1185.600  
  20017187.334 8  20017186.98347  20017190.46547 105191024.381 8  81967041.38947
      2872.831        2238.568  
  23538468.917 7  23538469.26644  23538476.21844 123695490.233 7  96386101.12044
      5104.508        3977.535  
 18  2 21 16 45 13.0000000  0  9G 2G12G15G20G21G24G25G29G32         
  24252969.476 7  24252969.16244  24252971.78844 127450205.532 7  99311861.69044
      1015.112         791.002  
  23084294.580 7  23084294.32145  23084298.10145 121308775.259 7  94526330.70645
       658.198         512.874  
  22498611.898 8  22498611.54345  22498615.32645 118230985.353 8  92128046.45245
      -592.235        -461.483  
  23824641.763 6  23824640.80843  23824646.75543 125199344.040 6  97557932.78243
      1467.489        1143.490  
  23647211.840 7  23647210.81644  23647216.72844 124266925.104 7  96831375.94344
      4945.760        3853.828  
  21506703.736 8  21506703.31146  21506709.38646 113018474.516 8  88066348.61646
      2587.282        2016.064  
  22514898.569 8  22514897.81746  22514905.09346 118316586.390 8  92194751.36946
      1521.587        1185.657  
  20016640.764 8  20016640.37147  20016643.83147 105188151.848 8  81964803.05147
      2872.235        2238.106  
  23537497.668 7  23537497.98144  23537504.83444 123690385.869 7  96382123.69544
      5104.208        3977.304  
 18  2 21 16 45 14.0000000  0  9G 2G12G15G20G21G24G25G29G32         
  24252776.187 7  24252776.18844  24252778.58744 127449190.610 7  99311070.83844
      1014.751         790.719  
  23084169.403 7  23084169.08345  23084172.78445 121308116.942 7  94525817.73145
       658.424         513.060  
  22498724.774 8  22498724.29645  22498728.05345 118231577.652 8  92128507.98345
      -592.368        -461.584  
  23824362.871 6  23824361.78643  23824367.56143 125197876.366 6  97556789.12143
      1467.837        1143.799  
  23646270.537 7  23646269.62344  23646275.72644 124261979.236 7  96827522.02544
      4945.960        3853.990  
  21506211.459 8  21506211.01246  21506217.02646 113015887.330 8  88064332.62946
      2587.061        2015.889  
  22514608.965 7  22514608.22946  22514615.56446 118315064.764 7  92193565.68846
      1521.661        1185.706  
  20016094.241 8  20016093.83647  20016097.32347 105185279.915 8  81962565.18147
      2871.633        2237.636  
  23536526.368 7  23536526.64544  23536533.74444 123685281.771 7  96378146.47744
      5103.966        3977.115  
 18  2 21 16 45 15.0000000  0  9G 2G12G15G20G21G24G25G29G32         
  24252583.494 7  24252583.03644  24252585.37044 127448175.959 7  99310280.20644
      1014.516         790.523  
  23084043.934 7  23084043.87245  23084047.40945 121307458.358 7  94525304.55045
       658.716         513.285  
  22498837.380 8  22498836.95645  22498840.72245 118232170.077 8  92128969.61245
      -592.487        -461.677  
  23824083.982 6  23824082.09643  23824088.02943 125196408.394 6  97555645.24343
      1468.121        1143.985  
  23645329.211 7  23645328.27444  23645334.46544 124257033.224 7  96823667.98644
      4946.083        3854.100  
  21505719.221 8  21505718.70646  21505724.71046 113013300.410 8  88062316.84746
      2586.788        2015.679  
  22514319.382 7  22514318.62146  22514326.06646 118313543.039 7  92192379.93046
      1521.775        1185.796  
  20015547.839 8  20015547.37947  20015550.91847 105182408.564 8  81960327.76847
      2871.059        2237.186  
  23535555.311 7  23535555.46544  23535562.59544 123680178.003 7  96374169.51944
      5103.601        3976.827  
 18  2 21 16 45 16.0000000  0  9G 2G12G15G20G21G24G25G29G32         
  24252390.568 7  24252390.12244  24252392.34744 127447161.592 7  99309489.79044
      1014.224         790.307  
  23083918.306 7  23083918.50545  23083922.06845 121306799.560 7  94524791.19845
       658.906         513.436  
  22498950.159 8  22498949.67445  22498953.51445 118232762.587 8  92129431.31045
      -592.553        -461.732  
  23823804.227 6  23823802.97943  23823808.32243 125194940.087 6  97554501.10643
      1468.475        1144.267  
  23644387.979 7  23644387.13244  23644393.39544 124252087.048 7  96819813.82744
      4946.259        3854.219  
  21505226.952 8  21505226.49046  21505232.43246 113010713.735 8  88060301.25746
      2586.551        2015.493  
  22514029.793 8  22514028.94446  22514036.59846 118312021.219 8  92191194.09646
      1521.867        1185.872  
  20015001.466 8  20015001.03847  20015004.61347 105179537.790 8  81958090.79947
      2870.486        2236.746  
  23534584.280 7  23534584.56444  23534591.30344 123675074.525 7  96370192.78344
      5103.334        3976.624  
 18  2 21 16 45 17.0000000  0  9G 2G12G15G20G21G24G25G29G32         
  24252197.650 7  24252197.01244  24252199.54444 127446147.529 7  99308699.61544
      1013.913         790.055  
  23083793.019 7  23083793.03045  23083796.65445 121306140.507 7  94524277.65245
       659.180         513.644  
  22499062.993 7  22499062.33245  22499066.21245 118233355.219 7  92129893.10045
      -592.693        -461.837  
  23823525.625 6  23823523.62543  23823528.74243 125193471.421 6  97553356.69343
      1468.845        1144.551  
  23643446.483 7  23643446.00844  23643452.09944 124247140.643 7  96815959.49144
      4946.520        3854.426  
  21504734.659 8  21504734.28846  21504740.29446 113008127.307 8  88058285.85746
      2586.306        2015.305  
  22513740.201 7  22513739.36646  22513747.04846 118310499.328 7  92190008.20346
      1521.927        1185.923  
  20014455.373 8  20014454.81947  20014458.43147 105176667.588 8  81955854.27747
      2869.915        2236.297  
  23533612.923 7  23533613.52444  23533620.19444 123669971.343 7  96366216.28144
      5103.035        3976.386  
 18  2 21 16 45 18.0000000  0  9G 2G12G15G20G21G24G25G29G32         
  24252004.350 7  24252004.03944  24252006.63044 127445133.660 7  99307909.58544
      1013.771         789.957  
  23083667.642 7  23083667.67645  23083671.23145 121305481.133 7  94523763.85545
       659.533         513.922  
  22499175.755 7  22499175.13345  22499178.91845 118233947.893 7  92130354.92645
      -592.694        -461.843  
  23823246.179 6  23823243.71643  23823248.91443 125192002.335 6  97552211.95443
      1469.295        1144.901  
  23642505.347 7  23642504.92044  23642510.78344 124242194.080 7  96812105.03144
      4946.641        3854.520  
  21504242.465 8  21504242.15746  21504248.19846 113005541.033 8  88056270.58046
      2586.195        2015.217  
  22513450.386 7  22513449.66046  22513457.40446 118308977.247 7  92188822.16846
      1522.176        1186.106  
  20013909.405 8  20013908.72647  20013912.37847 105173797.896 8  81953618.15447
      2869.438        2235.925  
  23532641.907 7  23532642.46944  23532649.22344 123664868.371 7  96362239.94644
      5102.866        3976.250  
 18  2 21 16 45 19.0000000  0  9G 2G12G15G20G21G24G25G29G32         
  24251811.222 7  24251811.18944  24251813.75744 127444120.138 7  99307119.82744
      1013.349         789.621  
  23083541.939 7  23083542.09345  23083545.79345 121304821.563 7  94523249.90145
       659.669         514.032  
  22499288.624 7  22499287.82245  22499291.75345 118234540.678 7  92130816.83945
      -592.842        -461.957  
  23822966.515 6  23822964.15443  23822969.11743 125190532.965 6  97551066.98843
      1469.512        1145.080  
  23641564.006 7  23641563.67244  23641569.46744 124237247.246 7  96808250.35644
      4946.970        3854.784  
  21503750.404 8  21503750.04846  21503755.99946 113002955.061 8  88054255.53546
      2585.822        2014.927  
  22513160.719 8  22513159.96946  22513167.77446 118307455.128 8  92187636.10446
      1522.138        1186.078  
  20013363.362 8  20013362.74047  20013366.41047 105170928.804 8  81951382.50147
      2868.792        2235.417  
  23531670.672 7  23531671.47444  23531678.23144 123659765.722 7  96358263.86144
      5102.488        3975.961  
 18  2 21 16 45 20.0000000  0  9G 2G12G15G20G21G24G25G29G32         
  24251618.991 7  24251618.30944  24251620.79044 127443106.914 7  99306330.30244
      1013.075         789.409  
  23083416.337 7  23083416.44245  23083420.30745 121304161.746 7  94522735.75345
       659.939         514.245  
  22499401.309 8  22499400.63845  22499404.53345 118235133.598 8  92131278.85445
      -592.986        -462.066  
  23822686.505 6  23822684.69743  23822689.84043 125189063.279 6  97549921.77343
      1469.844        1145.340  
  23640622.851 7  23640622.35144  23640627.89244 124232300.310 7  96804395.60144
      4946.986        3854.794  
  21503258.405 8  21503257.93946  21503263.98646 113000369.318 8  88052240.67046
      2585.628        2014.775  
  22512870.792 8  22512870.34546  22512878.14846 118305932.905 8  92186449.95846
      1522.274        1186.186  
  20012817.490 8  20012816.87447  20012820.55147 105168060.311 8  81949147.31347
      2868.193        2234.956  
  23530700.054 7  23530700.51044  23530707.21144 123654663.359 7  96354287.99244
      5102.220        3975.760  
 18  2 21 16 45 21.0000000  0  9G 2G12G15G20G21G24G25G29G32         
  24251426.198 7  24251425.59244  24251428.04844 127442093.988 7  99305541.00744
      1012.776         789.180  
  23083290.583 7  23083290.89845  23083294.88045 121303501.726 7  94522221.45345
       660.123         514.376  
  22499513.997 7  22499513.45445  22499517.22645 118235726.649 7  92131740.97345
      -593.117        -462.171  
  23822406.668 6  23822404.81743  23822410.17343 125187593.264 6  97548776.31243
      1470.179        1145.584  
  23639681.392 7  23639680.92844  23639686.54744 124227353.217 7  96800540.72844
      4947.171        3854.932  
  21502766.325 8  21502765.91846  21502771.97246 112997783.873 8  88050226.03846
      2585.296        2014.516  
  22512581.227 8  22512580.67546  22512588.39746 118304410.649 8  92185263.78446
      1522.274        1186.188  
  20012271.686 8  20012271.12047  20012274.84547 105165192.422 8  81946912.59547
      2867.586        2234.483  
  23529729.001 6  23529729.41344  23529736.46844 123649561.349 6  96350312.40844
      5101.834        3975.440  
 18  2 21 16 45 22.0000000  0  9G 2G12G15G20G21G24G25G29G32         
  24251233.634 7  24251232.86644  24251235.34844 127441081.313 7  99304751.90944
      1012.550         789.000  
  23083165.231 7  23083165.37945  23083169.19745 121302841.415 7  94521706.92545
       660.455         514.642  
  22499626.735 7  22499626.29345  22499630.20345 118236319.802 7  92132203.16645
      -593.204        -462.231  
  23822126.859 6  23822125.12643  23822129.96243 125186122.910 6  97547630.57843
      1470.524        1145.871  
  23638739.974 7  23638739.42644  23638745.13144 124222405.934 7  96796685.70544
      4947.378        3855.098  
  21502274.642 8  21502273.98046  21502279.96546 112995198.593 8  88048211.53546
      2585.196        2014.439  
  22512291.742 8  22512291.00846  22512298.67846 118302888.223 8  92184077.47646
      1522.510        1186.375  
  20011725.915 8  20011725.53447  20011729.19047 105162325.062 8  81944678.28947
      2867.096        2234.099  
  23528758.063 7  23528758.60344  23528765.56644 123644459.542 7  96346336.97844
      5101.705        3975.353  
 18  2 21 16 45 23.0000000  0  9G 2G12G15G20G21G24G25G29G32         
  24251041.205 7  24251040.22844  24251042.62544 127440068.924 7  99303963.03644
      1012.246         788.760  
  23083039.678 7  23083039.62845  23083043.59745 121302180.823 7  94521192.17645
       660.733         514.859  
  22499739.613 7  22499739.19245  22499743.18445 118236913.065 7  92132665.44745
      -593.319        -462.325  
  23821846.843 6  23821844.95843  23821849.95943 125184652.209 6  97546484.57143
      1470.874        1146.143  
  23637798.313 7  23637797.94944  23637803.51744 124217458.466 7  96792830.54144
      4947.561        3855.235  
  21501782.882 8  21501782.11446  21501788.03746 112992613.549 8  88046197.21946
      2584.927        2014.222  
  22512002.114 8  22512001.25146  22512008.89746 118301365.694 8  92182891.09346
      1522.581        1186.419  
  20011180.293 8  20011179.93547  20011183.60447 105159458.272 8  81942444.42747
      2866.505        2233.640  
  23527787.214 6  23527787.75244  23527794.78044 123639358.026 6  96342361.77144
      5101.369        3975.095  
 18  2 21 16 45 24.0000000  0  9G 2G12G15G20G21G24G25G29G32         
  24250848.892 7  24250847.59244  24250850.19344 127439056.831 7  99303174.39144
      1011.945         788.531  
  23082913.834 7  23082913.94945  23082917.67145 121301520.033 7  94520677.27745
       660.889         514.974  
  22499852.518 7  22499852.03845  22499856.11245 118237506.381 7  92133127.76945
      -593.341        -462.342  
  23821566.578 6  23821565.15643  23821569.94743 125183181.110 6  97545338.26543
      1471.297        1146.456  
  23636856.636 7  23636856.38544  23636862.08744 124212510.776 7  96788975.20444
      4947.801        3855.423  
  21501290.818 8  21501290.17946  21501296.17746 112990028.765 8  88044183.10246
      2584.654        2014.016  
  22511712.309 8  22511711.47446  22511719.21446 118299843.096 8  92181704.65546
      1522.632        1186.466  
  20010634.858 8  20010634.54247  20010638.16047 105156592.056 8  81940211.01247
      2865.929        2233.191  
  23526816.292 7  23526817.05444  23526824.02844 123634256.825 7  96338386.80944
      5101.044        3974.840  
 18  2 21 16 45 25.0000000  0  9G 2G12G15G20G21G24G25G29G32         
  24250656.014 7  24250655.29544  24250657.85544 127438045.058 7  99302386.00144
      1011.612         788.263  
  23082788.093 7  23082788.17645  23082791.94245 121300858.985 7  94520162.17445
       661.177         515.205  
  22499965.382 8  22499964.91345  22499969.11345 118238099.868 8  92133590.22645
      -593.573        -462.524  
  23821286.625 6  23821285.37343  23821289.90443 125181709.770 6  97544191.75743
      1471.461        1146.609  
  23635914.946 7  23635914.93744  23635920.73444 124207562.984 7  96785119.78944
      4947.842        3855.454  
  21500798.860 8  21500798.36146  21500804.31746 112987444.240 8  88042169.18846
      2584.396        2013.814  
  22511422.321 7  22511421.70546  22511429.56646 118298320.411 7  92180518.14646
      1522.729        1186.544  
  20010089.570 8  20010089.23347  20010092.89447 105153726.431 8  81937978.05747
      2865.329        2232.726  
  23525845.612 6  23525846.24344  23525853.38444 123629155.897 6  96334412.06744
      5100.791        3974.632  
 18  2 21 16 45 26.0000000  0  9G 2G12G15G20G21G24G25G29G32         
  24550256.437 7  24550255.26144  24550257.99544 129012454.613 7 100529198.64144
      1011.299         788.027  
  23382454.997 7  23382454.80645  23382458.70845 122875618.386 7  95747247.42145
       661.367         515.351  
  22799870.762 8  22799870.21245  22799874.43345 119814112.914 8  93361652.34345
      -593.717        -462.641  
  24120799.449 6  24120798.19043  24120803.14343 126755659.625 6  98770646.19243
      1471.754        1146.813  
  23934766.706 7  23934766.73644  23934772.47244 125778039.979 7  98008868.10144
      4948.034        3855.608  
  21800099.898 8  21800099.54946  21800105.55346 114560282.594 8  89267757.51846
      2584.083        2013.567  
  22810925.132 7  22810924.69246  22810932.53446 119872219.156 7  93406932.75646
      1522.825        1186.610  
  20309337.409 8  20309337.03147  20309340.69347 106726284.282 8  83163347.81447
      2864.709        2232.235  
  23824668.347 6  23824668.93944  23824676.31844 125199480.398 6  97558041.55544
      5100.436        3974.359  
 18  2 21 16 45 27.0000000  0  9G 2G12G15G20G21G24G25G29G32         
  24550064.306 7  24550062.78344  24550065.70044 129011443.407 7 100528410.68744
      1011.080         787.856  
  23382329.136 8  23382328.99045  23382332.71645 122874956.899 8  95746731.98145
       661.601         515.525  
  22799983.881 7  22799983.14645  22799987.47445 119814706.612 7  93362114.96045
      -593.725        -462.636  
  24120519.979 6  24120517.98243  24120522.79643 126754187.597 6  98769499.16243
      1472.235        1147.189  
  23933825.385 7  23933825.05844  23933830.60244 125773091.814 7  98005012.39144
      4948.271        3855.793  
  21799608.183 8  21799607.73846  21799613.79046 114557698.585 8  89265744.00346
      2583.898        2013.432  
  22810635.395 8  22810634.90746  22810642.69846 119870696.323 8  93405746.13346
      1522.859        1186.646  
  20308792.213 8  20308791.87447  20308795.64747 106723419.850 8  83161115.78847
      2864.140        2231.800  
  23823697.366 7  23823698.45244  23823705.71344 125194380.083 7  97554067.28244
      5100.171        3974.167  
 18  2 21 16 45 28.0000000  0  9G 2G12G15G20G21G24G25G29G32         
  24549871.849 7  24549870.46244  24549873.30944 129010432.531 7 100527622.99044
      1010.711         787.569  
  23382203.132 7  23382202.95345  23382206.84245 122874295.174 7  95746216.34545
       661.843         515.733  
  22800096.953 8  22800096.12445  22800100.45545 119815300.465 8  93362577.70445
      -593.931        -462.807  
  24120239.209 6  24120238.09743  24120242.69243 126752715.241 6  98768351.86243
      1472.519        1147.435  
  23932883.706 7  23932883.44444  23932889.01944 125768143.520 7  98001156.58244
      4948.358        3855.859  
  21799116.578 8  21799116.08546  21799122.07146 114555114.861 8  89263730.71146
      2583.582        2013.180  
  22810345.722 7  22810345.07946  22810352.88046 119869173.375 7  93404559.41946
      1523.006        1186.759  
  20308247.140 8  20308246.92847  20308250.61947 106720556.006 8  83158884.22447
      2863.550        2231.334  
  23822726.820 7  23822727.95244  23822735.21344 125189280.065 7  97550093.24544
      5099.870        3973.918  
 18  2 21 16 45 29.0000000  0  9G 2G12G15G20G21G24G25G29G32         
  24549679.510 7  24549678.06144  24549680.78044 129009421.980 7 100526835.55044
      1010.388         787.311  
  23382077.069 7  23382077.06145  23382080.88445 122873633.248 7  95745700.56345
       662.026         515.855  
  22800209.897 8  22800209.07945  22800213.58145 119815894.461 8  93363040.55945
      -594.069        -462.911  
  24119959.062 6  24119958.06043  24119962.51843 126751242.631 6  98767204.37443
      1472.737        1147.581  
  23931942.078 7  23931941.94244  23931947.38644 125763195.079 7  97997300.65644
      4948.515        3855.985  
  21798625.076 8  21798624.57746  21798630.47546 114552531.445 8  89261717.65846
      2583.261        2012.933  
  22810055.895 7  22810055.24846  22810062.99746 119867650.402 7  93403372.68246
      1522.987        1186.749  
  20307702.422 8  20307702.11847  20307705.77847 106717692.803 8  83156653.15547
      2862.882        2230.820  
  23821756.303 7  23821757.60944  23821764.64344 125184180.384 7  97546119.46944
      5099.512        3973.645  
 18  2 21 16 45 30.0000000  0  9G 2G12G15G20G21G24G25G29G32         
  24549487.330 7  24549485.64644  24549488.25344 129008411.724 7 100526048.33544
      1010.109         787.102  
  23381951.026 8  23381951.01245  23381955.02445 122872971.088 8  95745184.58945
       662.278         516.071  
  22800322.599 7  22800322.21745  22800326.69145 119816488.541 7  93363503.48145
      -594.121        -462.955  
  24119678.839 6  24119677.90443  24119682.32643 126749769.660 6  98766056.62043
      1473.151        1147.887  
  23931000.292 7  23931000.24444  23931005.72544 125758246.466 7  97993444.59544
      4948.699        3856.128  
  21798133.558 8  21798132.98246  21798138.91046 114549948.276 8  89259704.79346
      2583.047        2012.770  
  22809766.139 7  22809765.45746  22809773.15846 119866127.324 7  93402185.86846
      1523.129        1186.852  
  20307157.602 8  20307157.35747  20307161.04447 106714830.141 8  83154422.51247
      2862.392        2230.431  
  23820786.028 6  23820787.10344  23820794.03244 125179081.002 6  97542145.92644
      5099.232        3973.426  
 18  2 21 16 45 31.0000000  0  9G 2G12G15G20G21G24G25G29G32         
  24549294.555 7  24549293.46344  24549296.16144 129007401.751 7 100525261.34644
      1009.832         786.876  
  23381824.771 7  23381824.94545  23381828.99445 122872308.694 7  95744668.44345
       662.511         516.232  
  22800435.655 7  22800435.26145  22800439.72245 119817082.792 7  93363966.53745
      -594.337        -463.123  
  24119398.802 6  24119397.34943  24119401.99143 126748296.365 6  98764908.59243
      1473.457        1148.164  
  23930058.581 7  23930058.63544  23930064.07544 125753297.695 7  97989588.40844
      4948.850        3856.249  
  21797642.146 8  21797641.58546  21797647.40846 114547365.374 8  89257692.14546
      2582.768        2012.539  
  22809476.248 7  22809475.68846  22809483.29046 119864604.168 7  93400998.99946
      1523.196        1186.897  
  20306612.982 8  20306612.76447  20306616.39047 106711968.101 8  83152192.35247
      2861.730        2229.918  
  23819815.952 7  23819816.67344  23819823.77744 125173981.908 7  97538172.61344
      5098.949        3973.199  
 18  2 21 16 45 32.0000000  0  9G 2G12G15G20G21G24G25G29G32         
  24549102.687 7  24549101.59744  24549104.04144 129006392.102 7 100524474.60944
      1009.487         786.611  
  23381698.861 7  23381699.00945  23381702.83945 122871646.134 7  95744152.15945
       662.643         516.352  
  22800548.910 7  22800548.46245  22800552.82545 119817677.064 7  93364429.60345
      -594.282        -463.071  
  24119118.480 6  24119116.91143  24119122.30043 126746822.667 6  98763760.25243
      1473.899        1148.496  
  23929117.201 7  23929116.84444  23929122.21844 125748348.680 7  97985732.03344
      4949.137        3856.470  
  21797150.756 8  21797150.10646  21797155.91246 114544782.719 8  89255679.68546
      2582.532        2012.367  
  22809186.361 7  22809185.83346  22809193.45046 119863080.984 7  93399812.09946
      1523.197        1186.915  
  20306068.355 8  20306068.27047  20306071.93247 106709106.610 8  83149962.61947
      2861.215        2229.519  
  23818845.764 7  23818846.48544  23818853.63944 125168883.192 7  97534199.59044
      5098.528        3972.877  
 18  2 21 16 45 33.0000000  0  9G 2G12G15G20G21G24G25G29G32         
  24548910.314 6  24548909.35244  24548911.91644 129005382.671 6 100523688.03644
      1009.321         786.490  
  23381572.709 7  23381572.83245  23381576.75845 122870983.225 7  95743635.60945
       663.083         516.684  
  22800662.098 8  22800661.47545  22800665.96845 119818271.451 8  93364892.75645
      -594.446        -463.196  
  24118837.773 6  24118836.29743  24118842.23843 126745348.666 6  98762611.68843
      1474.153        1148.676  
  23928175.485 7  23928175.06044  23928180.41144 125743399.496 7  97981875.53244
      4949.269        3856.564  
  21796659.312 8  21796658.72146  21796664.55946 114542200.257 8  89253667.37846
      2582.365        2012.230  
  22808896.418 7  22808895.88046  22808903.49746 119861557.619 7  93398625.06146
      1523.456        1187.107  
  20305523.934 8  20305523.92047  20305527.51347 106706245.678 8  83147733.31847
      2860.653        2229.085  
  23817875.900 7  23817876.22644  23817883.50144 125163784.694 7  97530226.73644
      5098.389        3972.770  
 18  2 21 16 45 34.0000000  0  9G 2G12G15G20G21G24G25G29G32         
  24548718.482 7  24548717.36144  24548720.03344 129004373.570 7 100522901.72044
      1008.935         786.188  
  23381446.417 7  23381446.64545  23381450.45245 122870320.116 7  95743118.90045
       663.208         516.788  
  22800775.204 8  22800774.55445  22800778.91545 119818865.964 8  93365356.01045
      -594.575        -463.305  
  24118557.501 6  24118555.88543  24118561.33743 126743874.367 6  98761462.90143
      1474.448        1148.899  
  23927233.728 7  23927233.24544  23927238.64244 125738450.157 7  97978018.91044
      4949.416        3856.683  
  21796167.957 8  21796167.35446  21796173.09846 114539618.046 8  89251655.26346
      2582.086        2012.018  
  22808606.407 8  22808605.88946  22808613.61546 119860034.185 8  93397437.97246
      1523.467        1187.114  
  20304979.630 8  20304979.64047  20304983.24647 106703385.338 8  83145504.48147
      2860.045        2228.605  
  23816905.711 7  23816905.74844  23816913.43544 125158686.476 7  97526254.09444
      5098.077        3972.535  
 18  2 21 16 45 35.0000000  0  9G 2G12G15G20G21G24G25G29G32         
  24548526.414 7  24548525.38244  24548528.00844 129003364.800 7 100522115.65844
      1008.605         785.934  
  23381320.347 7  23381320.49145  23381324.23345 122869656.776 7  95742602.01445
       663.456         516.975  
  22800888.080 7  22800887.84645  22800892.15545 119819460.638 7  93365819.39745
      -594.755        -463.453  
  24118276.423 6  24118275.11043  24118280.93343 126742399.721 6  98760313.83643
      1474.819        1149.203  
  23926291.780 7  23926291.35544  23926296.74744 125733500.675 7  97974162.17244
      4949.553        3856.795  
  21795676.657 8  21795676.05646  21795681.81946 114537036.080 8  89249643.34246
      2581.842        2011.826  
  22808316.634 7  22808316.04446  22808323.62746 119858510.677 7  93396250.82246
      1523.545        1187.180  
  20304435.416 8  20304435.50847  20304439.06447 106700525.583 8  83143276.10147
      2859.462        2228.151  
  23815935.685 6  23815935.76544  23815943.35844 125153588.577 6  97522281.70844
      5097.741        3972.259  
 18  2 21 16 45 36.0000000  0  9G 2G12G15G20G21G24G25G29G32         
  24548334.503 7  24548333.63144  24548335.98244 129002356.327 7 100521329.83944
      1008.325         785.698  
  23381194.123 8  23381194.33245  23381198.14245 122868993.229 8  95742084.96345
       663.651         517.132  
  22801001.343 8  22801001.04145  22801005.37345 119820055.446 8  93366282.88545
      -594.875        -463.539  
  24117995.291 6  24117994.44243  24118000.25443 126740924.846 6  98759164.56843
      1474.990        1149.370  
  23925349.873 7  23925349.39644  23925355.12144 125728551.059 7  97970305.33044
      4949.683        3856.895  
  21795185.243 8  21795184.76346  21795190.49546 114534454.424 8  89247631.65946
      2581.503        2011.562  
  22808026.607 8  22808026.05646  22808033.67046 119856987.093 8  93395063.61446
      1523.622        1187.237  
  20303891.465 8  20303891.46447  20303894.96247 106697666.464 8  83141048.21747
      2858.802        2227.636  
  23814965.574 6  23814965.56744  23814973.17944 125148490.972 6  97518309.55044
      5097.456        3972.043  
 18  2 21 16 45 37.0000000  0  9G 2G12G15G20G21G24G25G29G32         
  24548142.783 7  24548141.77744  24548144.17444 129001348.189 7 100520544.27344
      1007.970         785.440  
  23381067.719 7  23381068.00345  23381072.01545 122868329.459 7  95741567.73845
       663.882         517.312  
  22801114.701 7  22801114.36745  22801118.51345 119820650.366 7  93366746.45645
      -594.976        -463.611  
  24117714.692 6  24117713.77043  24117719.76243 126739449.564 6  98758015.00543
      1475.484        1149.711  
  23924407.816 7  23924407.35744  23924413.31344 125723601.282 7  97966448.36544
      4949.857        3857.025  
  21794694.021 8  21794693.56046  21794699.31146 114531873.011 8  89245620.16946
      2581.291        2011.395  
  22807736.635 7  22807736.11146  22807743.67046 119855463.427 7  93393876.34146
      1523.708        1187.306  
  20303347.550 8  20303347.51147  20303351.04347 106694807.903 8  83138820.76447
      2858.283        2227.237  
  23813995.278 6  23813995.78344  23814003.17644 125143393.712 6  97514337.66444
      5097.089        3971.750  
 18  2 21 16 45 38.0000000  0  9G 2G12G15G20G21G24G25G29G32         
  24547951.227 6  24547950.13244  24547952.27444 129000340.275 6 100519758.89244
      1007.802         785.288  
  23380941.365 7  23380941.61045  23380945.76845 122867665.398 7  95741050.28645
       664.205         517.566  
  22801228.076 7  22801227.72445  22801231.65845 119821245.385 7  93367210.10445
      -595.069        -463.687  
  24117433.803 6  24117433.20243  24117438.98843 126737974.001 6  98756865.20943
      1475.705        1149.911  
  23923466.217 7  23923465.46044  23923471.30744 125718651.316 7  97962591.25844
      4950.061        3857.178  
  21794202.801 8  21794202.41246  21794208.16646 114529291.835 8  89243608.86246
      2581.057        2011.214  
  22807446.637 7  22807446.21946  22807453.66246 119853939.641 7  93392688.97646
      1523.845        1187.411  
  20302803.839 8  20302803.64147  20302807.18347 106691949.902 8  83136593.75147
      2857.719        2226.793  
  23813025.690 6  23813025.86244  23813033.40344 125138296.684 6  97510365.95644
      5096.911        3971.620  
 18  2 21 16 45 39.0000000  0  9G 2G12G15G20G21G24G25G29G32         
  24547759.358 6  24547758.34444  24547760.68544 128999332.685 6 100518973.75744
      1007.428         785.011  
  23380814.765 7  23380815.26945  23380819.50045 122867001.133 7  95740532.67745
       664.368         517.687  
  22801341.434 8  22801341.12845  22801345.00245 119821840.496 8  93367673.82145
      -595.157        -463.752  
  24117153.240 6  24117152.61143  24117158.19443 126736498.093 6  98755715.14543
      1476.080        1150.199  
  23922524.419 7  23922523.48244  23922529.31244 125713701.135 7  97958733.97744
      4950.288        3857.368  
  21793711.579 8  21793711.30446  21793717.05046 114526710.922 8  89241597.76246
      2580.782        2010.998  
  22807156.715 7  22807156.26646  22807163.68646 119852415.780 7  93391501.55146
      1523.899        1187.454  
  20302260.061 8  20302259.93047  20302263.38747 106689092.488 8  83134367.19747
      2857.121        2226.324  
  23812055.945 6  23812055.89144  23812063.33844 125133199.993 6  97506394.51144
      5096.523        3971.312  
 18  2 21 16 45 40.0000000  0  9G 2G12G15G20G21G24G25G29G32         
  24547567.429 7  24547566.64344  24547568.97444 128998325.393 7 100518188.85544
      1007.142         784.786  
  23380688.595 7  23380688.81945  23380692.98345 122866336.637 7  95740014.88745
       664.611         517.880  
  22801454.755 8  22801454.39145  22801458.18345 119822435.725 8  93368137.63645
      -595.287        -463.863  
  24116872.421 6  24116871.73643  24116877.10243 126735021.835 6  98754564.80643
      1476.433        1150.476  
  23921582.273 7  23921581.54244  23921587.24244 125708750.803 7  97954876.58344
      4950.408        3857.450  
  21793220.616 8  21793220.24346  21793225.95046 114524130.237 8  89239586.83846
      2580.571        2010.835  
  22806867.033 8  22806866.25046  22806873.66246 119850891.863 8  93390314.08446
      1523.945        1187.489  
  20301716.477 8  20301716.31047  20301719.70847 106686235.677 8  83132141.10847
      2856.511        2225.857  
  23811086.085 7  23811085.99644  23811093.64044 125128103.638 7  97502423.31944
      5096.186        3971.066  
 18  2 21 16 45 41.0000000  0  9G 2G12G15G20G21G24G25G29G32         
  24547375.824 6  24547374.99144  24547377.14144 128997318.425 6 100517404.21044
      1006.806         784.517  
  23380561.994 7  23380562.34545  23380566.55245 122865671.927 7  95739496.93345
       664.816         518.036  
  22801568.115 8  22801567.82345  22801571.53945 119823031.205 8  93368601.64545
      -595.607        -464.108  
  24116591.614 6  24116590.64243  24116596.13943 126733545.364 6  98753414.31343
      1476.577        1150.571  
  23920639.809 7  23920639.49444  23920645.13344 125703800.462 7  97951019.18344
      4950.344        3857.403  
  21792729.541 8  21792729.30446  21792734.92846 114521549.849 8  89237576.14546
      2580.239        2010.578  
  22806576.903 7  22806576.28646  22806583.66046 119849367.872 7  93389126.55746
      1524.028        1187.556  
  20301172.926 8  20301172.80647  20301176.19847 106683379.523 8  83129915.53647
      2855.824        2225.314  
  23810116.224 7  23810116.30544  23810124.00644 125123007.585 7  97498452.37644
      5095.903        3970.819  
